SALE TYPE,SOLD DATE,PROPERTY TYPE,ADDRESS,CITY,STATE,ZIP,PRICE,BEDS,BATHS,LOCATION,SQUARE FEET,LOT SIZE,YEAR BUILT,DAYS ON MARKET,$/SQUARE FEET,HOA/MONTH,STATUS,NEXT OPEN HOUSE START TIME,NEXT OPEN HOUSE END TIME,URL (SEE http://www.redfin.com/buy-a-home/comparative-market-analysis FOR INFO ON PRICING),SOURCE,MLS#,FAVORITE,INTERESTED,LATITUDE,LONGITUDE
PAST SALE,June-28-2018,Condo/Co-op,932 Kirkham St,San Francisco,CA,94122,1375000,2,1.0,Inner Sunset,1150,,1946,17,1196,300,Sold,,,http://www.redfin.com/CA/San-Francisco/932-Kirkham-St-94122/home/17305640,San Francisco MLS,472847,N,Y,37.760269,-122.4709829
PAST SALE,July-13-2018,Condo/Co-op,855 Folsom St #126,San Francisco,CA,94107,870000,1,1.5,Yerba Buena,847,,2001,2,1027,554,Sold,,,http://www.redfin.com/CA/San-Francisco/855-Folsom-St-94107/unit-126/home/12397850,San Francisco MLS,472777,N,Y,37.7810153,-122.4020927
PAST SALE,June-20-2018,Single Family Residential,3060 26th St,San Francisco,CA,94110,1615000,3,1.5,Inner Mission,1930,1036,1931,25,837,,Sold,,,http://www.redfin.com/CA/San-Francisco/3060-26th-St-94110/home/738665,San Francisco MLS,470197,N,Y,37.7495908,-122.4110483
PAST SALE,June-26-2018,Single Family Residential,760 Felton St,San Francisco,CA,94134,1410000,3,1.0,Portola,1580,3500,1938,19,892,,Sold,,,http://www.redfin.com/CA/San-Francisco/760-Felton-St-94134/home/1016433,San Francisco MLS,470957,N,Y,37.7282406,-122.412161
PAST SALE,July-2-2018,Single Family Residential,2598 Diamond St,San Francisco,CA,94131,1650000,3,2.0,Glen Park,1390,2178,1924,13,1187,,Sold,,,http://www.redfin.com/CA/San-Francisco/2598-Diamond-St-94131/home/807053,San Francisco MLS,471683,N,Y,37.7373713,-122.4348576
PAST SALE,June-27-2018,Condo/Co-op,2501 Harrison St #1,San Francisco,CA,94110,1550000,2,2.5,Inner Mission,1550,,2001,18,1000,409,Sold,,,http://www.redfin.com/CA/San-Francisco/2501-Harrison-St-94110/unit-1/home/1424598,San Francisco MLS,471580,N,Y,37.7571963,-122.4119508
PAST SALE,July-2-2018,Condo/Co-op,4483 23rd St #4,San Francisco,CA,94114,1050000,2,1.0,Noe Valley,924,,1968,13,1136,250,Sold,,,http://www.redfin.com/CA/San-Francisco/4483-23rd-St-94114/unit-4/home/17306319,San Francisco MLS,471432,N,Y,37.7521835,-122.4422341
PAST SALE,July-6-2018,Condo/Co-op,1701 Grove St #4,San Francisco,CA,94117,940000,2,1.0,North Panhandle,,,1913,9,,383,Sold,,,http://www.redfin.com/CA/San-Francisco/1701-Grove-St-94117/unit-4/home/12127061,San Francisco MLS,471743,N,Y,37.774933,-122.4447554
PAST SALE,July-9-2018,Single Family Residential,418 Victoria St,San Francisco,CA,94132,1300000,3,2.0,Merced Heights,1448,2500,1948,6,898,,Sold,,,http://www.redfin.com/CA/San-Francisco/418-Victoria-St-94132/home/1793561,San Francisco MLS,471624,N,Y,37.7183081,-122.4651895
PAST SALE,June-22-2018,Condo/Co-op,201 Folsom St Unit 28B,San Francisco,CA,94105,1855000,2,2.0,South Beach,1187,,2018,23,1563,1110,Sold,,,http://www.redfin.com/CA/San-Francisco/201-Folsom-St-94105/unit-28B/home/144064143,San Francisco MLS,469509,N,Y,37.7886997,-122.39226
PAST SALE,June-20-2018,Condo/Co-op,1443 Francisco St,San Francisco,CA,94123,1625000,2,1.0,Marina,1270,,1923,25,1280,375,Sold,,,http://www.redfin.com/CA/San-Francisco/1443-Francisco-St-94123/home/1277348,San Francisco MLS,471222,N,Y,37.8026052,-122.4289708
PAST SALE,June-15-2018,Condo/Co-op,1020 Union St #9,San Francisco,CA,94133,2100000,2,2.0,Russian Hill,1846,,1921,30,1138,947,Sold,,,http://www.redfin.com/CA/San-Francisco/1020-Union-St-94133/unit-9/home/12400086,San Francisco MLS,470110,N,Y,37.7997637,-122.4162427
PAST SALE,June-27-2018,Condo/Co-op,455 Vallejo St #308,San Francisco,CA,94133,929000,1,1.0,Telegraph Hill,825,,1973,18,1126,634,Sold,,,http://www.redfin.com/CA/San-Francisco/455-Vallejo-St-94133/unit-308/home/1134861,San Francisco MLS,470390,N,Y,37.798808,-122.4048266
PAST SALE,June-22-2018,Condo/Co-op,1520 Taylor St #201,San Francisco,CA,94133,1100000,2,2.0,Nob Hill,1130,,1976,23,973,715,Sold,,,http://www.redfin.com/CA/San-Francisco/1520-Taylor-St-94133/unit-201/home/1088731,San Francisco MLS,471725,N,Y,37.7964605,-122.4130987
PAST SALE,June-21-2018,Multi-Family (2-4 Unit),563-565 Lombard St,San Francisco,CA,94133,2200000,,,North Beach,2630,1759,1907,24,837,,Sold,,,http://www.redfin.com/CA/San-Francisco/563-Lombard-St-94133/home/1208022,San Francisco MLS,471017,N,Y,37.8029044,-122.4107197
PAST SALE,June-22-2018,Multi-Family (2-4 Unit),1429-1431 Oak St,San Francisco,CA,94117,1850000,3,4.0,Haight Ashbury,2848,3545,1900,23,650,,Sold,,,http://www.redfin.com/CA/San-Francisco/655-Montgomery-St-94111/home/599408,San Francisco MLS,471769,N,Y,37.7952457,-122.4035231
PAST SALE,,Condo/Co-op,1027 Pacific Ave,San Francisco,CA,94133,1300000,,,,1243,,1925,,1046,,,,,http://www.redfin.com/CA/San-Francisco/1027-Pacific-Ave-94133/home/1673529,,,N,Y,37.7961014,-122.4121485
PAST SALE,,Multi-Family (5+ Unit),685 Florida St Apt 2,San Francisco,CA,94110,2550000,,,,,2500,,,,,,,,http://www.redfin.com/CA/San-Francisco/685-Florida-St-94110/unit-2/home/110067811,,,N,Y,37.760708,-122.410678
PAST SALE,June-20-2018,Condo/Co-op,3365 20th St #8,San Francisco,CA,94110,1595000,2,2.0,Inner Mission,1303,,2002,25,1224,443,Sold,,,http://www.redfin.com/CA/San-Francisco/3365-20th-St-94110/unit-8/home/12398618,San Francisco MLS,470244,N,Y,37.7586323,-122.4161261
PAST SALE,June-15-2018,Condo/Co-op,8 Buchanan St #507,San Francisco,CA,94102,805000,1,1.0,Hayes Valley,,,2014,30,,479,Sold,,,http://www.redfin.com/CA/San-Francisco/8-Buchanan-St-94102/unit-507/home/55244684,San Francisco MLS,470861,N,Y,37.7699869,-122.4264516
PAST SALE,June-26-2018,Condo/Co-op,616 Page St,San Francisco,CA,94117,1520000,3,1.0,Hayes Valley,1645,,1890,19,924,300,Sold,,,http://www.redfin.com/CA/San-Francisco/616-Page-St-94117/home/1443565,San Francisco MLS,470364,N,Y,37.7731869,-122.4314401
PAST SALE,June-28-2018,Condo/Co-op,233 Liberty St,San Francisco,CA,94114,1115000,1,1.0,Eureka Valley/Dolore,,,1957,17,,235,Sold,,,http://www.redfin.com/CA/San-Francisco/233-Liberty-St-94114/home/1242670,San Francisco MLS,471609,N,Y,37.757171,-122.426535
PAST SALE,June-29-2018,Condo/Co-op,89 Belcher St,San Francisco,CA,94114,1100000,2,1.0,Duboce Triangle,908,,1900,16,1211,273,Sold,,,http://www.redfin.com/CA/San-Francisco/89-Belcher-St-94114/home/1841054,San Francisco MLS,471493,N,Y,37.7679761,-122.4299356
PAST SALE,July-9-2018,Condo/Co-op,203 Guerrero St,San Francisco,CA,94103,2325000,3,3.0,Mission Dolores,1886,,2004,6,1233,509,Sold,,,http://www.redfin.com/CA/San-Francisco/203-Guerrero-St-94103/home/868583,San Francisco MLS,471547,N,Y,37.7678555,-122.4241956
PAST SALE,July-10-2018,Single Family Residential,617 Sanchez St,San Francisco,CA,94114,2500000,2,1.0,Eureka Valley/Dolore,600,,,5,4167,,Sold,,,http://www.redfin.com/CA/San-Francisco/617-Sanchez-St-94114/home/710971,San Francisco MLS,473162,N,Y,37.759138,-122.430054
PAST SALE,July-5-2018,Condo/Co-op,8 Landers St #102,San Francisco,CA,94114,875000,1,1.0,Mission Dolores,642,,2006,10,1363,358,Sold,,,http://www.redfin.com/CA/San-Francisco/8-Landers-St-94114/unit-102/home/21967165,San Francisco MLS,471494,N,Y,37.7675562,-122.4279795
PAST SALE,June-28-2018,Multi-Family (5+ Unit),534-538 Page St,San Francisco,CA,94117,3625000,9,,Hayes Valley,5445,3781,1906,17,666,,Sold,,,http://www.redfin.com/CA/San-Francisco/534-Page-St-94117/home/581074,San Francisco MLS,471498,N,Y,37.7734531,-122.4296309
PAST SALE,June-25-2018,Condo/Co-op,65 Cumberland St,San Francisco,CA,94110,1765000,3,1.0,Mission Dolores,1450,,1908,20,1217,325,Sold,,,http://www.redfin.com/CA/San-Francisco/65-Cumberland-St-94110/home/12277246,San Francisco MLS,471650,N,Y,37.758842,-122.424865
PAST SALE,,Multi-Family (2-4 Unit),219 Lily St,San Francisco,CA,94102,1225000,4,2.0,,2300,2000,1946,,533,,,,,http://www.redfin.com/CA/San-Francisco/219-Lily-St-94102/home/2033242,,,N,Y,37.7741348,-122.4245168
PAST SALE,June-20-2018,Condo/Co-op,180 Noe St,San Francisco,CA,94114,1535000,3,1.5,Duboce Triangle,1407,,1890,25,1091,313,Sold,,,http://www.redfin.com/CA/San-Francisco/180-Noe-St-94114/home/17306711,San Francisco MLS,472650,N,Y,37.766244,-122.433602
PAST SALE,,Townhouse,3620 19th St Apt 10,San Francisco,CA,94110,1600000,2,2.0,,1510,,2008,,1060,,,,,http://www.redfin.com/CA/San-Francisco/3620-19th-St-94110/unit-10/home/23424245,,,N,Y,37.7606197,-122.4243633
PAST SALE,July-2-2018,Condo/Co-op,2002 3rd St #210,San Francisco,CA,94107,1100000,2,2.0,Central Waterfront,1358,,2002,13,810,606,Sold,,,http://www.redfin.com/CA/San-Francisco/2002-3rd-St-94107/unit-210/home/12398015,San Francisco MLS,471459,N,Y,37.763914,-122.3891164
PAST SALE,June-28-2018,Single Family Residential,711 Vermont St,San Francisco,CA,94107,2375000,2,2.0,Potrero Hill,,2495,1910,17,,,Sold,,,http://www.redfin.com/CA/San-Francisco/711-Vermont-St-94107/home/1976528,San Francisco MLS,471569,N,Y,37.7606267,-122.4039084
PAST SALE,June-21-2018,Condo/Co-op,738 Long Bridge St #213,San Francisco,CA,94158,1685000,2,2.0,Mission Bay,1374,,2016,24,1226,970,Sold,,,http://www.redfin.com/CA/San-Francisco/738-Long-Bridge-St-94158/unit-213/home/109278474,San Francisco MLS,472586,N,Y,37.7717748,-122.3940731
PAST SALE,July-10-2018,Condo/Co-op,354 20th Ave,San Francisco,CA,94121,2042000,4,3.0,Central Richmond,2147,,1919,5,951,300,Sold,,,http://www.redfin.com/CA/San-Francisco/354-20th-Ave-94121/home/40625960,San Francisco MLS,471997,N,Y,37.781242,-122.479112
PAST SALE,July-2-2018,Single Family Residential,377 Clipper St,San Francisco,CA,94114,3500000,4,2.5,Noe Valley,,2848,1908,13,,,Sold,,,http://www.redfin.com/CA/San-Francisco/377-Clipper-St-94114/home/805033,San Francisco MLS,472308,N,Y,37.7487521,-122.4332982
PAST SALE,July-3-2018,Condo/Co-op,1492 Dolores St Unit B,San Francisco,CA,94110,1200000,2,1.0,Noe Valley,786,,,12,1527,203,Sold,,,http://www.redfin.com/CA/San-Francisco/1492-Dolores-St-94110/unit-B/home/17305770,San Francisco MLS,471611,N,Y,37.745605,-122.424937
PAST SALE,July-9-2018,Single Family Residential,1507 Noe St,San Francisco,CA,94131,4500000,4,3.5,Noe Valley,,,1912,6,,,Sold,,,http://www.redfin.com/CA/San-Francisco/1507-Noe-St-94131/home/2017436,San Francisco MLS,471174,N,Y,37.7448484,-122.4310088
PAST SALE,June-28-2018,Single Family Residential,401 28th St,San Francisco,CA,94131,1255000,1,1.0,Noe Valley,1010,2117,1910,17,1243,,Sold,,,http://www.redfin.com/CA/San-Francisco/401-28th-St-94131/home/804101,San Francisco MLS,471395,N,Y,37.7448856,-122.4315239
PAST SALE,June-27-2018,Condo/Co-op,53 Wilder St #402,San Francisco,CA,94131,1300000,2,2.0,Glen Park,1237,,2006,18,1051,642,Sold,,,http://www.redfin.com/CA/San-Francisco/53-Wilder-St-94131/unit-402/home/17306499,San Francisco MLS,472835,N,Y,37.7339807,-122.4334369
PAST SALE,July-6-2018,Multi-Family (2-4 Unit),375-377 Hearst Ave,San Francisco,CA,94112,1130000,3,2.0,Sunnyside,1750,2809,1907,9,646,,Sold,,,http://www.redfin.com/CA/San-Francisco/377-Hearst-Ave-94112/home/1965404,San Francisco MLS,471975,N,Y,37.7305845,-122.445994
PAST SALE,June-29-2018,Single Family Residential,289 Joost Ave,San Francisco,CA,94131,1620000,3,2.0,Sunnyside,1970,1875,1925,16,822,,Sold,,,http://www.redfin.com/CA/San-Francisco/289-Joost-Ave-94131/home/815891,San Francisco MLS,470834,N,Y,37.7322016,-122.4417364
PAST SALE,,Single Family Residential,1020 Munich St,San Francisco,CA,94112,1100000,4,2.0,,1550,2352,1923,,710,,,,,http://www.redfin.com/CA/San-Francisco/1020-Munich-St-94112/home/908141,,,N,Y,37.7118454,-122.4339286
PAST SALE,June-19-2018,Condo/Co-op,201 Folsom St Unit 30E,San Francisco,CA,94105,3116000,3,3.0,South Beach,1780,,2018,26,1751,1205,Sold,,,http://www.redfin.com/CA/San-Francisco/201-Folsom-St-94105/unit-30E/home/139923641,San Francisco MLS,469808,N,Y,37.7886997,-122.39226
PAST SALE,June-29-2018,Condo/Co-op,338 Spear St Unit 29A,San Francisco,CA,94105,1600000,2,2.0,South Beach,,,,16,,948,Sold,,,http://www.redfin.com/CA/San-Francisco/338-Spear-St-94105/unit-29A/home/23424125,San Francisco MLS,470464,N,Y,37.789557,-122.390595
PAST SALE,June-29-2018,Condo/Co-op,201 Folsom St Unit 33B,San Francisco,CA,94105,5455000,3,3.0,South Beach,2692,,2018,16,2026,1350,Sold,,,http://www.redfin.com/CA/San-Francisco/201-Folsom-St-94105/unit-33B/home/144064151,San Francisco MLS,472880,N,Y,37.7886997,-122.39226
PAST SALE,June-15-2018,Condo/Co-op,301 Main Unit 17G,San Francisco,CA,94105,980000,1,1.0,South Beach,809,,2008,30,1211,898,Sold,,,http://www.redfin.com/CA/San-Francisco/301-Main-St-94105/unit-17G/home/21966778,San Francisco MLS,469636,N,Y,37.7895974,-122.3911965
PAST SALE,July-2-2018,Condo/Co-op,333 Beale St Unit 3F,San Francisco,CA,94105,1069000,1,1.0,South Beach,920,,2015,13,1162,1061,Sold,,,http://www.redfin.com/CA/San-Francisco/333-Beale-St-94105/unit-3F/home/103689078,San Francisco MLS,471374,N,Y,37.7886251,-122.391875
PAST SALE,July-3-2018,Condo/Co-op,318 Spear St Unit 3C,San Francisco,CA,94105,900000,1,1.0,South Beach,842,,2008,12,1069,904,Sold,,,http://www.redfin.com/CA/San-Francisco/318-Spear-St-94105/unit-3C/home/21967029,San Francisco MLS,472837,N,Y,37.7897457,-122.3908558
PAST SALE,July-2-2018,Condo/Co-op,301 Main St Unit 8B,San Francisco,CA,94105,2040000,2,2.5,South Beach,1812,,2008,13,1126,1036,Sold,,,http://www.redfin.com/CA/San-Francisco/301-Main-St-94105/unit-8B/home/21967024,San Francisco MLS,469379,N,Y,37.7895974,-122.3911965
PAST SALE,June-29-2018,Condo/Co-op,425 1st St #3604,San Francisco,CA,94105,850000,1,1.0,South Beach,605,,2008,16,1405,859,Sold,,,http://www.redfin.com/CA/San-Francisco/425-1st-St-94105/unit-3604/home/17305194,San Francisco MLS,472954,N,Y,37.7860609,-122.3925906
PAST SALE,July-3-2018,Condo/Co-op,201 Sansome St #703,San Francisco,CA,94104,820000,1,1.0,Financial District,664,,1909,12,1235,612,Sold,,,http://www.redfin.com/CA/San-Francisco/201-Sansome-St-94104/unit-703/home/12277364,San Francisco MLS,470234,N,Y,37.7922314,-122.4012282
PAST SALE,July-6-2018,Condo/Co-op,201 Folsom St Unit 15c,San Francisco,CA,94105,2045000,2,2.0,South Beach,1400,,2016,9,1461,1142,Sold,,,http://www.redfin.com/CA/San-Francisco/201-Folsom-St-94105/unit-15C/home/125805683,San Francisco MLS,471497,N,Y,37.7886997,-122.39226
PAST SALE,July-13-2018,Condo/Co-op,1 Hawthorne St Unit 5F,San Francisco,CA,94105,710000,1,1.0,Yerba Buena,504,,2010,2,1409,661,Sold,,,http://www.redfin.com/CA/San-Francisco/1-Hawthorne-St-94105/unit-5F/home/40138688,San Francisco MLS,471237,N,Y,37.7857356,-122.3989521
PAST SALE,July-13-2018,Condo/Co-op,338 Main St Unit D33E,San Francisco,CA,94105,2950000,3,3.0,South Beach,1791,,2016,2,1647,1204,Sold,,,http://www.redfin.com/CA/San-Francisco/338-Main-St-94105/unit-D33E/home/110052607,San Francisco MLS,468765,N,Y,37.7888208,-122.3912963
PAST SALE,June-20-2018,Condo/Co-op,301 Main St Unit 12A,San Francisco,CA,94105,1425000,2,2.0,South Beach,1163,,2008,25,1225,947,Sold,,,http://www.redfin.com/CA/San-Francisco/301-Main-St-94105/unit-12A/home/21966699,San Francisco MLS,470209,N,Y,37.7895974,-122.3911965
PAST SALE,,Unknown,181 Fremont St Unit 60B,San Francisco,CA,94105,6820000,,,,,,,,,,,,,http://www.redfin.com/CA/San-Francisco/181-Fremont-St-94105/unit-60B/home/146226810,,,N,Y,37.7898082,-122.3953565
PAST SALE,July-12-2018,Condo/Co-op,1 Hawthorne St Unit 19A,San Francisco,CA,94105,1200000,1,1.0,Yerba Buena,909,,2010,3,1320,731,Sold,,,http://www.redfin.com/CA/San-Francisco/1-Hawthorne-St-94105/unit-19A/home/40628865,San Francisco MLS,471507,N,Y,37.7857356,-122.3989521
PAST SALE,June-15-2018,Condo/Co-op,151 Alice B. Toklas Pl #606,San Francisco,CA,94109,1385000,2,2.0,Van Ness/Civic Center,1490,,,30,930,896,Sold,,,http://www.redfin.com/CA/San-Francisco/151-Alice-B-Toklas-94109/unit-606/home/1915059,San Francisco MLS,468889,N,Y,37.7850879,-122.420674
PAST SALE,July-12-2018,Condo/Co-op,601 Van Ness Ave #1028,San Francisco,CA,94102,425000,0,1.0,Van Ness/Civic Center,489,,1982,3,869,742,Sold,,,http://www.redfin.com/CA/San-Francisco/601-Van-Ness-Ave-94102/unit-1028/home/1117329,San Francisco MLS,472053,N,Y,37.7817846,-122.4208606
PAST SALE,June-19-2018,Condo/Co-op,151 Alice B. Toklas Pl #511,San Francisco,CA,94109,925000,1,1.0,Van Ness/Civic Center,1267,,1920,26,730,759,Sold,,,http://www.redfin.com/CA/San-Francisco/151-Alice-B-Toklas-94109/unit-511/home/941213,San Francisco MLS,468793,N,Y,37.7850879,-122.420674
PAST SALE,June-29-2018,Single Family Residential,110 Summit St,San Francisco,CA,94112,1335000,3,2.0,Oceanview,1661,1763,1962,16,804,,Sold,,,http://www.redfin.com/CA/San-Francisco/110-Summit-St-94112/home/1929554,San Francisco MLS,471071,N,Y,37.7164398,-122.4537456
PAST SALE,July-9-2018,Single Family Residential,840 Mount Vernon Ave,San Francisco,CA,94112,1225000,2,1.0,Ingleside,1002,3031,1939,6,1223,,Sold,,,http://www.redfin.com/CA/San-Francisco/840-Mt-Vernon-Ave-94112/home/1672520,San Francisco MLS,471628,N,Y,37.7200524,-122.4521422
PAST SALE,June-27-2018,Multi-Family (5+ Unit),1935 Jefferson St,San Francisco,CA,94123,5275000,12,,San Francisco County,8025,3781,1930,18,657,,Sold,,,http://www.redfin.com/CA/San-Francisco/1935-Jefferson-St-94123/home/583794,BAREIS,21803484,N,Y,37.8042749,-122.444392
PAST SALE,June-29-2018,Condo/Co-op,1921 Jefferson St #107,San Francisco,CA,94123,1075000,2,2.0,Marina,826,,1991,16,1301,554,Sold,,,http://www.redfin.com/CA/San-Francisco/1921-Jefferson-St-94123/unit-107/home/1050567,San Francisco MLS,471896,N,Y,37.8044607,-122.4440256
PAST SALE,June-29-2018,Condo/Co-op,238 Parker Ave,San Francisco,CA,94118,2462000,3,3.5,Lone Mountain,1996,,,16,1233,250,Sold,,,http://www.redfin.com/CA/San-Francisco/238-Parker-Ave-94118/home/110033900,San Francisco MLS,470866,N,Y,37.781035,-122.453681
PAST SALE,July-5-2018,Single Family Residential,831 Marina Blvd,San Francisco,CA,94123,4100000,3,3.5,Marina,3128,2391,1938,10,1311,,Sold,,,http://www.redfin.com/CA/San-Francisco/831-Marina-Blvd-94123/home/1968953,San Francisco MLS,471986,N,Y,37.8048299,-122.4478854
PAST SALE,June-15-2018,Single Family Residential,18 Starview Way,San Francisco,CA,94131,1460000,3,2.0,Midtown Terrace,,3323,1956,30,,,Sold,,,http://www.redfin.com/CA/San-Francisco/18-Starview-Way-94131/home/1191807,San Francisco MLS,470012,N,Y,37.7494913,-122.4515562
PAST SALE,July-9-2018,Single Family Residential,472 Lansdale Ave,San Francisco,CA,94127,1350000,3,2.0,Sherwood Forest,1347,2809,1958,6,1002,,Sold,,,http://www.redfin.com/CA/San-Francisco/472-Lansdale-Ave-94127/home/686024,San Francisco MLS,469912,N,Y,37.7360306,-122.4547961
PAST SALE,July-9-2018,Single Family Residential,178 Amber Dr,San Francisco,CA,94131,2550000,4,2.5,Diamond Heights,2020,3510,1962,6,1262,,Sold,,,http://www.redfin.com/CA/San-Francisco/178-Amber-Dr-94131/home/838094,San Francisco MLS,471627,N,Y,37.7443137,-122.4450643
PAST SALE,July-9-2018,Single Family Residential,31 Verna St,San Francisco,CA,94127,1250000,2,1.0,Miraloma Park,,,1959,6,,,Sold,,,http://www.redfin.com/CA/San-Francisco/31-Verna-St-94127/home/2024500,San Francisco MLS,471879,N,Y,37.7353272,-122.4482499
PAST SALE,June-29-2018,Single Family Residential,372 Cresta Vista Dr,SAN FRANCISCO,CA,94127,1408000,3,1.0,SAN FRANCISCO,1326,4617,1959,16,1062,,Sold,,,http://www.redfin.com/CA/San-Francisco/372-Cresta-Vista-Dr-94127/home/1112464,MLSListings,ML81707355,N,Y,37.7356961,-122.452075
PAST SALE,June-28-2018,Condo/Co-op,798 Great Hwy #3,San Francisco,CA,94121-3267,1075000,1,2.0,Outer Richmond,1515,1515,1991,17,710,426,Sold,,,http://www.redfin.com/CA/San-Francisco/798-Great-Hwy-94121/unit-3/home/1984708,EBRD/CCAR/Bay East,40818385,N,Y,37.7733668,-122.5106875
PAST SALE,June-29-2018,Single Family Residential,674 43rd Ave,San Francisco,CA,94121,1750000,3,2.0,Outer Richmond,1870,2996,1924,16,936,,Sold,,,http://www.redfin.com/CA/San-Francisco/674-43rd-Ave-94121/home/1724628,San Francisco MLS,470349,N,Y,37.7759249,-122.5034817
PAST SALE,June-29-2018,Single Family Residential,811 41st Ave,San Francisco,CA,94121,1500000,2,1.0,Outer Richmond,1465,2374,1925,16,1024,,Sold,,,http://www.redfin.com/CA/San-Francisco/811-41st-Ave-94121/home/1314906,San Francisco MLS,472885,N,Y,37.7733591,-122.5016691
PAST SALE,June-21-2018,Single Family Residential,618 48th Ave,San Francisco,CA,94121,3310000,4,4.0,Outer Richmond,3735,3959,1951,24,886,,Sold,,,http://www.redfin.com/CA/San-Francisco/618-48th-Ave-94121/home/621109,San Francisco MLS,471083,N,Y,37.7766008,-122.5090077
PAST SALE,June-26-2018,Single Family Residential,740 Francisco St,San Francisco,CA,94105,2375000,2,2.5,San Francisco,1430,3592,1948,19,1661,,Sold,,,http://www.redfin.com/CA/San-Francisco/740-Francisco-St-94133/home/1215937,EBRD/CCAR/Bay East,40824858,N,Y,37.8043897,-122.4173801
PAST SALE,June-28-2018,Single Family Residential,10 Imperial Ave,San Francisco,CA,94123,2000000,3,1.5,Cow Hollow,1612,2056,1906,17,1241,,Sold,,,http://www.redfin.com/CA/San-Francisco/10-Imperial-Ave-94123/home/1699276,San Francisco MLS,471097,N,Y,37.799775,-122.4269845
PAST SALE,June-15-2018,Condo/Co-op,3058 Polk St #2,San Francisco,CA,94109,1420000,3,2.0,Russian Hill,1385,,1989,30,1025,600,Sold,,,http://www.redfin.com/CA/San-Francisco/3058-Polk-St-94109/unit-2/home/1674909,San Francisco MLS,469921,N,Y,37.8051009,-122.4233882
PAST SALE,June-24-2018,Single Family Residential,1868 Greenwich St,San Francisco,CA,94123,3000000,2,1.0,Cow Hollow,1636,3438,1910,21,1834,,Sold,,,http://www.redfin.com/CA/San-Francisco/1868-Greenwich-St-94123/home/1235533,San Francisco MLS,472675,N,Y,37.7998319,-122.4305987
PAST SALE,June-26-2018,Condo/Co-op,1865 Clay St #5,San Francisco,CA,94109,1850000,3,2.0,Pacific Heights,1670,,1914,19,1108,765,Sold,,,http://www.redfin.com/CA/San-Francisco/1865-Clay-St-94109/unit-5/home/110051574,San Francisco MLS,470760,N,Y,37.7917921,-122.4238306
PAST SALE,June-29-2018,Condo/Co-op,1101 Green St #603,San Francisco,CA,94109,950000,1,2.0,Russian Hill,918,,1930,16,1035,1421,Sold,,,http://www.redfin.com/CA/San-Francisco/1101-Green-St-94109/unit-603/home/541969,San Francisco MLS,471299,N,Y,37.7982681,-122.4174152
PAST SALE,July-6-2018,Condo/Co-op,1425 Vallejo St #306,San Francisco,CA,94109,850000,1,1.0,Russian Hill,792,,1982,9,1073,590,Sold,,,http://www.redfin.com/CA/San-Francisco/1425-Vallejo-St-94109/unit-306/home/11743020,San Francisco MLS,471020,N,Y,37.7969072,-122.4209327
PAST SALE,,Multi-Family (2-4 Unit),720 Masonic Ave,San Francisco,CA,94117,2000000,,2.0,,2660,2935,1912,,752,,,,,http://www.redfin.com/CA/San-Francisco/720-Masonic-Ave-94117/home/1942737,,,N,Y,37.774521,-122.4458257
PAST SALE,June-29-2018,Condo/Co-op,1310 Fillmore St #905,San Francisco,CA,94115,872000,1,1.0,Western Addition,749,,2007,16,1164,695,Sold,,,http://www.redfin.com/CA/San-Francisco/1310-Fillmore-St-94115/unit-905/home/17306630,San Francisco MLS,470438,N,Y,37.7819513,-122.4319769
PAST SALE,June-29-2018,Multi-Family (5+ Unit),936 Scott St,San Francisco,CA,94115,3312500,12,,Alamo Square,6942,3275,1927,16,477,,Sold,,,http://www.redfin.com/CA/San-Francisco/936-Scott-St-94115/home/578964,San Francisco MLS,468518,N,Y,37.7785216,-122.4366072
PAST SALE,June-29-2018,Condo/Co-op,1171 Oak St #4,San Francisco,CA,94117,1200000,2,2.0,Haight Ashbury,,,,16,,403,Sold,,,http://www.redfin.com/CA/San-Francisco/1171-Oak-St-94117/unit-4/home/1266841,San Francisco MLS,470144,N,Y,37.772708,-122.43853
PAST SALE,July-10-2018,Condo/Co-op,1057 Haight St,San Francisco,CA,94117,1320000,2,2.0,Haight Ashbury,,,1965,5,,210,Sold,,,http://www.redfin.com/CA/San-Francisco/1057-Haight-St-94117/home/1967458,San Francisco MLS,471901,N,Y,37.7707739,-122.4395244
PAST SALE,July-11-2018,Multi-Family (2-4 Unit),246-248 Parker Ave,San Francisco,CA,94118,2500000,5,4.0,Lone Mountain,2696,2583,1900,4,927,,Sold,,,http://www.redfin.com/CA/San-Francisco/248-Parker-Ave-94118/home/593264,San Francisco MLS,472096,N,Y,37.7809705,-122.4537433
PAST SALE,July-12-2018,Condo/Co-op,1930 Hayes St #4,San Francisco,CA,94117,1125000,2,1.5,North Panhandle,815,,1980,3,1380,250,Sold,,,http://www.redfin.com/CA/San-Francisco/1930-Hayes-St-94117/unit-4/home/1859628,San Francisco MLS,470166,N,Y,37.7739417,-122.4483383
PAST SALE,July-6-2018,Condo/Co-op,751 Baker,San Francisco,CA,94115,1325000,3,1.0,North Panhandle,,,,9,,100,Sold,,,http://www.redfin.com/CA/San-Francisco/751-Baker-St-94115/home/17305070,San Francisco MLS,470562,N,Y,37.778033,-122.442156
PAST SALE,,Single Family Residential,4536 20th St,San Francisco,CA,94114,1450000,2,1.0,,1105,1873,1900,,1312,,,,,http://www.redfin.com/CA/San-Francisco/4536-20th-St-94114/home/934451,,,N,Y,37.7576282,-122.4386952
PAST SALE,,Condo/Co-op,1209 2nd Ave,San Francisco,CA,94122,1100000,3,1.5,,1300,,1908,,846,,,,,http://www.redfin.com/CA/San-Francisco/1209-2nd-Ave-94122/home/874656,,,N,Y,37.766012,-122.459194
PAST SALE,,Multi-Family (5+ Unit),501 Masonic Ave,San Francisco,CA,94117,2400000,4,4.0,,3438,3613,1923,,698,,,,,http://www.redfin.com/CA/San-Francisco/501-Masonic-Ave-94117/home/597092,,,N,Y,37.7765869,-122.4468786
PAST SALE,,Multi-Family (5+ Unit),1457 Fulton St #1467,San Francisco,CA,94117,1600000,,6.0,,11280,6875,1900,,142,,,,,http://www.redfin.com/CA/San-Francisco/1457-Fulton-St-94117/unit-1467/home/2010289,,,N,Y,37.7762412,-122.4407564
PAST SALE,June-18-2018,Single Family Residential,180 Downey St,San Francisco,CA,94117,1578000,3,3.0,Buena Vista Park,1400,1999,1900,27,1127,,Sold,,,http://www.redfin.com/CA/San-Francisco/180-Downey-St-94117/home/1515589,San Francisco MLS,470389,N,Y,37.765797,-122.4467459
PAST SALE,July-2-2018,Condo/Co-op,919 Central Ave,San Francisco,CA,94115,1040000,1,1.0,North Panhandle,881,,1900,13,1180,290,Sold,,,http://www.redfin.com/CA/San-Francisco/919-Central-Ave-94115/home/21966392,San Francisco MLS,471176,N,Y,37.778492,-122.445587
PAST SALE,June-20-2018,Condo/Co-op,4545 18th St,San Francisco,CA,94114,1550000,2,2.0,Eureka Valley/Dolore,1334,,1904,25,1162,350,Sold,,,http://www.redfin.com/CA/San-Francisco/4543-18th-St-94114/home/1291484,San Francisco MLS,470764,N,Y,37.7603104,-122.4403194
PAST SALE,June-21-2018,Condo/Co-op,409 14th Ave,San Francisco,CA,94118,1075000,2,1.0,Central Richmond,1180,,1946,24,911,122,Sold,,,http://www.redfin.com/CA/San-Francisco/409-14th-Ave-94118/home/1284891,San Francisco MLS,470756,N,Y,37.7802817,-122.4730614
PAST SALE,June-18-2018,Townhouse,121 4th Ave,San Francisco,CA,94118,1400000,3,3.0,Lake,1376,,1904,27,1017,159,Sold,,,http://www.redfin.com/CA/San-Francisco/121-4th-Ave-94118/home/1891767,San Francisco MLS,470447,N,Y,37.786269,-122.462842
PAST SALE,June-18-2018,Single Family Residential,715 29th Ave,San Francisco,CA,94121,2300000,4,3.0,Central Richmond,2205,2250,1923,27,1043,,Sold,,,http://www.redfin.com/CA/San-Francisco/715-29th-Ave-94121/home/962812,San Francisco MLS,471434,N,Y,37.7757378,-122.4888917
PAST SALE,,Condo/Co-op,313 2nd Ave Apt 3,San Francisco,CA,94118,925000,,,,922,,1965,,1003,,,,,http://www.redfin.com/CA/San-Francisco/313-2nd-Ave-94118/unit-3/home/1420097,,,N,Y,37.7826428,-122.4604278
PAST SALE,,Single Family Residential,435 38th Ave,San Francisco,CA,94121,1028000,,1.0,,2030,2996,1933,,506,,,,,http://www.redfin.com/CA/San-Francisco/435-38th-Ave-94121/home/1818738,,,N,Y,37.7806604,-122.4991049
PAST SALE,June-25-2018,Single Family Residential,764 44th Ave,San Francisco,CA,94121,1725000,2,1.0,Outer Richmond,1686,4200,1924,20,1023,,Sold,,,http://www.redfin.com/CA/San-Francisco/764-44th-Ave-94121/home/1359478,San Francisco MLS,470317,N,Y,37.7742112,-122.5044543
PAST SALE,June-22-2018,Condo/Co-op,1602 Anza St,San Francisco,CA,94118,851000,2,1.0,Inner Richmond,,,,23,,264,Sold,,,http://www.redfin.com/CA/San-Francisco/1602-Anza-St-94118/home/56664630,San Francisco MLS,471235,N,Y,37.7791963,-122.4654722
PAST SALE,June-15-2018,Condo/Co-op,1306 McAllister St,San Francisco,CA,94115,1700000,4,2.0,Alamo Square,1834,,1900,30,927,325,Sold,,,http://www.redfin.com/CA/San-Francisco/1306-McAllister-St-94115/home/110031202,San Francisco MLS,466516,N,Y,37.778598,-122.433728
PAST SALE,June-29-2018,Single Family Residential,549 Bright St,San Francisco,CA,94132,1120000,3,1.0,Merced Heights,1365,2495,1925,16,821,,Sold,,,http://www.redfin.com/CA/San-Francisco/549-Bright-St-94132/home/1303031,San Francisco MLS,470380,N,Y,37.7206422,-122.4638075
PAST SALE,July-6-2018,Single Family Residential,52 Broadmoor Dr,San Francisco,CA,94132,2200000,3,3.5,Lakeside,2330,4870,1940,9,944,,Sold,,,http://www.redfin.com/CA/San-Francisco/52-Broadmoor-Dr-94132/home/1415837,San Francisco MLS,471528,N,Y,37.7276639,-122.4735036
PAST SALE,July-11-2018,Condo/Co-op,3981 Alemany Blvd #219,SAN FRANCISCO,CA,94132,800000,2,2.0,SAN FRANCISCO,968,325629,2002,4,826,498,Sold,,,http://www.redfin.com/CA/San-Francisco/3981-Alemany-Blvd-94132/unit-219/home/1875812,MLSListings,ML81707801,N,Y,37.7105232,-122.4688823
PAST SALE,June-22-2018,Condo/Co-op,333 Grant Ave #501,San Francisco,CA,94108,995000,1,1.0,Financial District,832,,1908,23,1196,847,Sold,,,http://www.redfin.com/CA/San-Francisco/333-Grant-Ave-94108/unit-501/home/873051,San Francisco MLS,468190,N,Y,37.7901504,-122.4058696
PAST SALE,June-22-2018,Condo/Co-op,74 New Montgomery St #404,San Francisco,CA,94105,216032,0,1.0,Yerba Buena,474,,1914,23,456,797,Sold,,,http://www.redfin.com/CA/San-Francisco/74-New-Montgomery-St-94105/unit-404/home/17304417,San Francisco MLS,467934,N,Y,37.7874578,-122.4013098
PAST SALE,June-22-2018,Townhouse,601 Van Ness Ave #83,San Francisco,CA,94102,990000,3,2.0,Van Ness/Civic Center,1110,,1982,23,892,988,Sold,,,http://www.redfin.com/CA/San-Francisco/601-Van-Ness-Ave-94102/unit-83/home/1691471,San Francisco MLS,470131,N,Y,37.7813857,-122.4214063
PAST SALE,June-21-2018,Condo/Co-op,601 Van Ness Ave #521,San Francisco,CA,94102,675000,1,1.0,Van Ness/Civic Center,724,,1982,24,932,822,Sold,,,http://www.redfin.com/CA/San-Francisco/601-Van-Ness-Ave-94102/unit-521/home/2033222,San Francisco MLS,470499,N,Y,37.7813857,-122.4214063
PAST SALE,,Unknown,1000 3rd St #817,San Francisco,CA,94158,950000,,,,,,,,,,,,,http://www.redfin.com/CA/San-Francisco/1000-3rd-St-94158/unit-817/home/146183536,,,N,Y,37.7752125,-122.3902276
PAST SALE,,Unknown,1000 3rd St #810,San Francisco,CA,94158,981000,,,,,,,,,,,,,http://www.redfin.com/CA/San-Francisco/1000-3rd-St-94158/unit-810/home/146183537,,,N,Y,37.7752125,-122.3902276
PAST SALE,July-12-2018,Townhouse,146 Lake Merced Hls,San Francisco,CA,94132,1350000,3,2.5,Lake Shore,2062,,1974,3,655,586,Sold,,,http://www.redfin.com/CA/San-Francisco/146-S-Lake-Merced-Hls-94132/home/1233742,San Francisco MLS,471441,N,Y,37.7092621,-122.4839505
PAST SALE,June-25-2018,Condo/Co-op,201 Folsom St Unit 2D,San Francisco,CA,94105,1495000,2,2.0,South Beach,1213,,2018,20,1232,1113,Sold,,,http://www.redfin.com/CA/San-Francisco/201-Folsom-St-94105/unit-2D/home/144064110,San Francisco MLS,469230,N,Y,37.7886997,-122.39226
PAST SALE,July-3-2018,Condo/Co-op,229 Brannan St Unit 18 E,San Francisco,CA,94107,1735000,2,2.0,South Beach,,,2001,12,,1069,Sold,,,http://www.redfin.com/CA/San-Francisco/229-Brannan-St-94107/unit-18E/home/856382,San Francisco MLS,471143,N,Y,37.7824513,-122.3902228
PAST SALE,July-3-2018,Condo/Co-op,401 Harrison St Unit 19F,San Francisco,CA,94105,1230000,1,1.0,South Beach,830,,2014,12,1482,1096,Sold,,,http://www.redfin.com/CA/San-Francisco/401-Harrison-St-94105/unit-19F/home/144063890,San Francisco MLS,469159,N,Y,37.7863747,-122.3919931
PAST SALE,July-10-2018,Condo/Co-op,403 Main St Unit 114N,San Francisco,CA,94105,675000,1,1.0,South Beach,473,,1997,5,1427,390,Sold,,,http://www.redfin.com/CA/San-Francisco/403-Main-St-94105/unit-114N/home/1885040,San Francisco MLS,470886,N,Y,37.7880767,-122.3896032
PAST SALE,July-11-2018,Condo/Co-op,38 Lusk St #3,San Francisco,CA,94107,1045000,1,1.5,South Beach,1090,,1995,4,959,360,Sold,,,http://www.redfin.com/CA/San-Francisco/38-Lusk-St-94107/unit-3/home/12396285,San Francisco MLS,471603,N,Y,37.7784196,-122.3948033
PAST SALE,July-13-2018,Condo/Co-op,1000 3rd St #811,San Francisco,CA,94158,2134000,3,2.0,Mission Bay,1458,,,2,1464,877,Sold,,,http://www.redfin.com/CA/San-Francisco/1000-3rd-St-94158/unit-811/home/109299629,San Francisco MLS,451708,N,Y,37.7752125,-122.3902276
PAST SALE,July-13-2018,Condo/Co-op,1325 Indiana St #204,San Francisco,CA,94107,850000,1,2.0,Central Waterfront,,,2002,2,,396,Sold,,,http://www.redfin.com/CA/San-Francisco/1325-Indiana-St-94107/unit-204/home/1400445,San Francisco MLS,471308,N,Y,37.753702,-122.3903556
PAST SALE,,Multi-Family (5+ Unit),1000 3rd St #201,San Francisco,CA,94158,944500,,,,,,,,,,,,,http://www.redfin.com/CA/San-Francisco/1000-3rd-St-94158/unit-201/home/106429284,,,N,Y,37.7752125,-122.3902276
PAST SALE,July-3-2018,Single Family Residential,461 Noriega St,San Francisco,CA,94122,2450000,3,3.0,Golden Gate Heights,2450,3179,1955,12,1000,,Sold,,,http://www.redfin.com/CA/San-Francisco/461-Noriega-St-94122/home/1525082,San Francisco MLS,471362,N,Y,37.7548633,-122.4685948
PAST SALE,June-27-2018,Single Family Residential,49 Westgate Dr,San Francisco,CA,94127,1337000,2,1.0,Mount Davidson Manor,1249,3236,1927,18,1070,,Sold,,,http://www.redfin.com/CA/San-Francisco/49-Westgate-Dr-94127/home/1486763,San Francisco MLS,471726,N,Y,37.7279513,-122.4661625
PAST SALE,June-25-2018,Multi-Family (5+ Unit),672 Castro St,San Francisco,CA,94114,3750000,13,,Eureka Valley/Dolore,7216,4120,1900,20,520,,Sold,,,http://www.redfin.com/CA/San-Francisco/672-Castro-St-94114/home/145504278,San Francisco MLS,470116,N,Y,37.758091,-122.435146
PAST SALE,June-27-2018,Condo/Co-op,3550 Market St #103,San Francisco,CA,94131,1150000,2,2.0,Twin Peaks,1218,,1979,18,944,600,Sold,,,http://www.redfin.com/CA/San-Francisco/3550-Market-St-94131/unit-103/home/145693446,San Francisco MLS,471160,N,Y,37.7565131,-122.4417593
PAST SALE,June-28-2018,Condo/Co-op,910 Corbett Ave #1,San Francisco,CA,94131,1000000,3,1.5,Twin Peaks,1496,,1989,17,668,,Sold,,,http://www.redfin.com/CA/San-Francisco/910-Corbett-Ave-94131/unit-1/home/12442607,San Francisco MLS,467421,N,Y,37.7523872,-122.4438707
PAST SALE,June-28-2018,Condo/Co-op,910 Corbett Ave #3,San Francisco,CA,94131,1000000,4,2.0,Twin Peaks,1430,,1989,17,699,,Sold,,,http://www.redfin.com/CA/San-Francisco/910-Corbett-Ave-94131/unit-3/home/12442557,San Francisco MLS,467418,N,Y,37.7523872,-122.4438707
PAST SALE,June-29-2018,Single Family Residential,34 Lagunitas Dr,San Francisco,CA,94132,2200000,4,3.0,Lakeside,3310,4948,1938,16,665,,Sold,,,http://www.redfin.com/CA/San-Francisco/34-Lagunitas-Dr-94132/home/1134364,San Francisco MLS,471803,N,Y,37.7335277,-122.4728402
PAST SALE,June-15-2018,Condo/Co-op,2200 Sacramento #102,San Francisco,CA,94115,1730000,2,2.0,Pacific Heights,1139,,1964,30,1519,817,Sold,,,http://www.redfin.com/CA/San-Francisco/2200-Sacramento-St-94115/unit-102/home/146212872,San Francisco MLS,471095,N,Y,37.7906708,-122.4294715
PAST SALE,June-15-2018,Condo/Co-op,461 2nd St Unit C123,San Francisco,CA,94107,750000,1,1.0,South Beach,639,,,30,1174,574,Sold,,,http://www.redfin.com/CA/San-Francisco/461-2nd-St-94107/unit-C123/home/1742499,San Francisco MLS,470433,N,Y,37.783797,-122.3937191
PAST SALE,June-18-2018,Single Family Residential,179 14th Ave,San Francisco,CA,94118,3700000,4,3.0,Lake,3193,3188,1900,27,1159,,Sold,,,http://www.redfin.com/CA/San-Francisco/179-14th-Ave-94118/home/114081766,San Francisco MLS,471248,N,Y,37.7848979,-122.4734151
PAST SALE,June-28-2018,Single Family Residential,1539 18th Ave,San Francisco,CA,94122,1710000,4,2.0,Inner Sunset,1680,2495,1939,17,1018,,Sold,,,http://www.redfin.com/CA/San-Francisco/1539-18th-Ave-94122/home/971620,San Francisco MLS,471346,N,Y,37.7591114,-122.4760684
PAST SALE,June-15-2018,Single Family Residential,6139 California St,San Francisco,CA,94121,2500000,3,2.5,Lake,2237,1875,1913,30,1118,,Sold,,,http://www.redfin.com/CA/San-Francisco/6139-California-St-94121/home/1866639,San Francisco MLS,471231,N,Y,37.7837857,-122.4835415
PAST SALE,July-12-2018,Multi-Family (2-4 Unit),363 365A 11th Ave,San Francisco,CA,94118,2100000,9,3.0,Inner Richmond,3855,3000,1907,3,545,,Sold,,,http://www.redfin.com/CA/San-Francisco/365a-11th-Ave-94118/home/146001542,San Francisco MLS,471933,N,Y,37.7815208,-122.469932
PAST SALE,July-12-2018,Single Family Residential,262 20th Ave,San Francisco,CA,94121,1915000,3,2.0,Central Richmond,1920,2996,1912,3,997,,Sold,,,http://www.redfin.com/CA/San-Francisco/262-20th-Ave-94121/home/1915783,San Francisco MLS,471759,N,Y,37.78297,-122.4794291
PAST SALE,June-25-2018,Single Family Residential,1222 33rd Ave,San Francisco,CA,94122,1625000,2,1.0,Central Sunset,1566,2996,1923,20,1038,,Sold,,,http://www.redfin.com/CA/San-Francisco/1222-33rd-Ave-94122/home/625443,San Francisco MLS,471452,N,Y,37.7642841,-122.4919756
PAST SALE,,Multi-Family (2-4 Unit),179 14th Ave,San Francisco,CA,94118,3700000,4,3.0,,3193,3188,1900,,1159,,,,,http://www.redfin.com/CA/San-Francisco/179-14th-Ave-94118/home/2026750,,,N,Y,37.7848922,-122.473501
PAST SALE,June-22-2018,Townhouse,555 Argonaut,San Francisco,CA,94134,820800,4,3.0,Visitacion Valley,1728,1372,1965,23,475,154,Sold,,,http://www.redfin.com/CA/San-Francisco/555-Argonaut-Ave-94134/home/788835,San Francisco MLS,470431,N,Y,37.7089231,-122.4145282
PAST SALE,June-22-2018,Single Family Residential,444 Sawyer St,SAN FRANCISCO,CA,94134,820000,2,1.0,SAN FRANCISCO,1302,2748,1944,23,630,,Sold,,,http://www.redfin.com/CA/San-Francisco/444-Sawyer-St-94134/home/1929227,MLSListings,ML81696487,N,Y,37.7125638,-122.4149264
PAST SALE,June-22-2018,Single Family Residential,168 Parque Dr,San Francisco,CA,94134,895000,3,1.25,Visitacion Valley,1231,2674,1945,23,727,,Sold,,,http://www.redfin.com/CA/San-Francisco/168-Parque-Dr-94134/home/1114365,San Francisco MLS,470734,N,Y,37.7103569,-122.4213198
PAST SALE,June-29-2018,Single Family Residential,283 Madrid,San Francisco,CA,94112,830000,2,1.0,Excelsior,750,1300,,16,1107,,Sold,,,http://www.redfin.com/CA/San-Francisco/283-Madrid-St-94112/home/773261,San Francisco MLS,469515,N,Y,37.7249185,-122.4300576
PAST SALE,June-26-2018,Single Family Residential,2811 Vallejo St,San Francisco,CA,94123,8000000,3,3.5,Pacific Heights,3526,3436,1925,19,2269,,Sold,,,http://www.redfin.com/CA/San-Francisco/2811-Vallejo-St-94123/home/585870,San Francisco MLS,470422,N,Y,37.793858,-122.443616
PAST SALE,June-27-2018,Single Family Residential,3358 Washington St,San Francisco,CA,94118,6500000,3,4.0,Presidio Heights,3726,3144,1940,18,1744,,Sold,,,http://www.redfin.com/CA/San-Francisco/3358-Washington-St-94118/home/1484103,San Francisco MLS,471847,N,Y,37.790084,-122.448353
PAST SALE,June-29-2018,Single Family Residential,3235 Baker St,San Francisco,CA,94123,3000000,2,2.0,Marina,2245,3571,1927,16,1336,,Sold,,,http://www.redfin.com/CA/San-Francisco/3235-Baker-St-94123/home/1491931,San Francisco MLS,472561,N,Y,37.8009631,-122.4467459
PAST SALE,June-26-2018,Condo/Co-op,2761 Greenwich St,San Francisco,CA,94123,1001000,1,1.0,Cow Hollow,934,,1972,19,1072,,Sold,,,http://www.redfin.com/CA/San-Francisco/2761-Greenwich-St-94123/home/1499141,San Francisco MLS,471514,N,Y,37.7976271,-122.4451646
PAST SALE,June-20-2018,Condo/Co-op,1631 Pierce St,San Francisco,CA,94115,1700000,3,2.5,Lower Pacific Height,1504,,1900,25,1130,767,Sold,,,http://www.redfin.com/CA/San-Francisco/1631-Pierce-St-94115/home/17393416,San Francisco MLS,472311,N,Y,37.7853059,-122.4367108
PAST SALE,July-6-2018,Condo/Co-op,17 Mallorca Way,San Francisco,CA,94123,1375000,2,1.5,Marina,1226,,1924,9,1122,212,Sold,,,http://www.redfin.com/CA/San-Francisco/17-Mallorca-Way-94123/home/1143890,San Francisco MLS,471934,N,Y,37.801015,-122.437616
PAST SALE,July-10-2018,Condo/Co-op,2801 Jackson St #301,San Francisco,CA,94115,1325000,1,1.0,Pacific Heights,,,1906,5,,700,Sold,,,http://www.redfin.com/CA/San-Francisco/2801-Jackson-St-94115/unit-301/home/970303,San Francisco MLS,471406,N,Y,37.791415,-122.441437
PAST SALE,July-11-2018,Single Family Residential,2760 Lyon St,San Francisco,CA,94123,4995000,4,3.5,Cow Hollow,2940,1877,1967,4,1699,,Sold,,,http://www.redfin.com/CA/San-Francisco/2760-Lyon-St-94123/home/585141,San Francisco MLS,470932,N,Y,37.796336,-122.4467902
PAST SALE,,Condo/Co-op,3615 Buchanan St Apt 206,San Francisco,CA,94123,1525000,,2.0,,1338,,1990,,1140,,,,,http://www.redfin.com/CA/San-Francisco/3615-Buchanan-St-94123/unit-206/home/1268184,,,N,Y,37.8032912,-122.4336709
PAST SALE,June-21-2018,Multi-Family (2-4 Unit),69-71 Cervantes Blvd,San Francisco,CA,94123,2793375,4,2.0,Marina,,,1927,24,,,Sold,,,http://www.redfin.com/CA/San-Francisco/69-Cervantes-Blvd-94123/home/558103,San Francisco MLS,468562,N,Y,37.8034754,-122.4386537
PAST SALE,,Single Family Residential,1825 Scott St,San Francisco,CA,94115,3200000,2,3.0,,1100,1694,1900,,2909,,,,,http://www.redfin.com/CA/San-Francisco/1825-Scott-St-94115/home/1780443,,,N,Y,37.786681,-122.438711
PAST SALE,June-26-2018,Condo/Co-op,630 Leavenworth St #5,San Francisco,CA,94109,880000,2,2.0,Downtown,994,,1918,19,885,605,Sold,,,http://www.redfin.com/CA/San-Francisco/630-Leavenworth-St-94109/unit-5/home/35636082,San Francisco MLS,469187,N,Y,37.7869986,-122.4146335
PAST SALE,,Condo/Co-op,1150 Sacramento St Apt 501,San Francisco,CA,94108,3700000,2,3.0,,2589,,1989,,1429,,,,,http://www.redfin.com/CA/San-Francisco/1150-Sacramento-St-94108/unit-501/home/548198,,,N,Y,37.792937,-122.411818
PAST SALE,June-15-2018,Condo/Co-op,900 Bush St #405,San Francisco,CA,94112,738000,1,1.0,Downtown,682,,1982,30,1082,864,Sold,,,http://www.redfin.com/CA/San-Francisco/900-Bush-St-94109/unit-405/home/1514342,San Francisco MLS,470471,N,Y,37.789945,-122.412727
PAST SALE,July-2-2018,Condo/Co-op,725 Pine St #308,SAN FRANCISCO,CA,94108,700000,1,1.0,SAN FRANCISCO,538,5000,1920,13,1301,588,Sold,,,http://www.redfin.com/CA/San-Francisco/725-Pine-St-94108/unit-308/home/17306955,MLSListings,ML81694671,N,Y,37.7911451,-122.4077504
PAST SALE,June-20-2018,Condo/Co-op,690 Market St #701,San Francisco,CA,94188,1050000,1,1.5,Financial District,,,,25,,2772,Sold,,,http://www.redfin.com/CA/San-Francisco/690-Market-St-94104/unit-701/home/146054284,San Francisco MLS,472377,N,Y,37.7883046,-122.4032778
PAST SALE,July-10-2018,Condo/Co-op,630 Leavenworth St #4,San Francisco,CA,94109,925000,2,2.0,Downtown,966,,1918,5,958,605,Sold,,,http://www.redfin.com/CA/San-Francisco/630-Leavenworth-St-94109/unit-4/home/39541928,San Francisco MLS,469450,N,Y,37.7869986,-122.4146335
PAST SALE,June-28-2018,Condo/Co-op,1333 Jones St #610,San Francisco,CA,94109,1850000,2,2.0,Nob Hill,,,1960,17,,1848,Sold,,,http://www.redfin.com/CA/San-Francisco/1333-Jones-St-94109/unit-610/home/12399916,San Francisco MLS,468556,N,Y,37.793621,-122.4148823
PAST SALE,June-25-2018,Condo/Co-op,725 Pine St #307,San Francisco,CA,94108,485000,0,1.0,Downtown,,,1908,20,,536,Sold,,,http://www.redfin.com/CA/San-Francisco/725-Pine-St-94108/unit-307/home/17306956,San Francisco MLS,470646,N,Y,37.7910138,-122.4076967
PAST SALE,June-26-2018,Condo/Co-op,506 Fell St Unit C,San Francisco,CA,94102,1560000,2,2.0,Hayes Valley,1215,,1991,19,1284,405,Sold,,,http://www.redfin.com/CA/San-Francisco/506-Fell-St-94102/unit-C/home/577864,San Francisco MLS,471105,N,Y,37.7756452,-122.4263525
PAST SALE,June-25-2018,Single Family Residential,32 Church St,San Francisco,CA,94114,2810000,3,2.5,Duboce Triangle,,1995,1924,20,,,Sold,,,http://www.redfin.com/CA/San-Francisco/32-Church-St-94114/home/145627014,San Francisco MLS,470872,N,Y,37.7698419,-122.4293725
PAST SALE,July-2-2018,Condo/Co-op,363 Waller St,San Francisco,CA,94117,1975000,3,2.5,Hayes Valley,1937,,,13,1020,445,Sold,,,http://www.redfin.com/CA/San-Francisco/363-Waller-St-94117/unit-1/home/1188699,San Francisco MLS,470416,N,Y,37.771038,-122.4296174
PAST SALE,June-26-2018,Condo/Co-op,890 Steiner St,San Francisco,CA,94117,930000,2,1.0,Alamo Square,1305,,1890,19,713,135,Sold,,,http://www.redfin.com/CA/San-Francisco/890-Steiner-St-94117/home/578433,San Francisco MLS,470311,N,Y,37.777324,-122.432872
PAST SALE,July-9-2018,Condo/Co-op,542 Fell St,San Francisco,CA,94102,947000,1,1.0,Hayes Valley,658,,1895,6,1439,148,Sold,,,http://www.redfin.com/CA/San-Francisco/542-Fell-St-94102/home/28890173,San Francisco MLS,471565,N,Y,37.7755418,-122.4267455
PAST SALE,July-13-2018,Condo/Co-op,714 Page St,San Francisco,CA,94117,1375000,3,1.0,Hayes Valley,1016,,1912,2,1353,330,Sold,,,http://www.redfin.com/CA/San-Francisco/714-Page-St-94117/home/110027986,San Francisco MLS,472016,N,Y,37.772989,-122.43267
PAST SALE,,Single Family Residential,80 Corona St,San Francisco,CA,94127,1500000,3,1.0,,1739,5471,1923,,863,,,,,http://www.redfin.com/CA/San-Francisco/80-Corona-St-94127/home/1464884,,,N,Y,37.7229606,-122.466649
PAST SALE,June-22-2018,Townhouse,3620 19th St #10,San Francisco,CA,94110,1600000,2,2.5,Mission Dolores,1510,,2008,23,1060,557,Sold,,,http://www.redfin.com/CA/San-Francisco/3620-19th-St-94110/unit-10/home/18368358,San Francisco MLS,468288,N,Y,37.7601547,-122.4243138
PAST SALE,June-29-2018,Single Family Residential,3751 21st St,San Francisco,CA,94114,2400000,3,1.0,Eureka Valley/Dolore,1295,2848,1910,16,1853,,Sold,,,http://www.redfin.com/CA/San-Francisco/3751-21st-St-94114/home/1694880,San Francisco MLS,462099,N,Y,37.7560935,-122.4312189
PAST SALE,July-9-2018,Condo/Co-op,3566 17th St #1,San Francisco,CA,94110,1725000,2,2.0,Mission Dolores,1190,,1994,6,1450,300,Sold,,,http://www.redfin.com/CA/San-Francisco/3566-17th-St-94110/unit-1/home/708399,San Francisco MLS,471952,N,Y,37.7632643,-122.4253349
PAST SALE,July-13-2018,Single Family Residential,4118 20th St,San Francisco,CA,94114,3150000,3,2.5,Eureka Valley/Dolore,1900,2450,1905,2,1658,,Sold,,,http://www.redfin.com/CA/San-Francisco/4118-20th-St-94114/home/1686850,San Francisco MLS,471098,N,Y,37.75801,-122.433035
PAST SALE,July-13-2018,Condo/Co-op,4210 17th St,San Francisco,CA,94114,1135000,1,1.0,Corona Heights,961,,1923,2,1181,325,Sold,,,http://www.redfin.com/CA/San-Francisco/4210-17th-St-94114/home/1394978,San Francisco MLS,472336,N,Y,37.7623516,-122.4397679
PAST SALE,June-18-2018,Single Family Residential,1742 34th Ave,San Francisco,CA,94122,1360000,2,1.5,Central Sunset,1688,2962,1940,27,806,,Sold,,,http://www.redfin.com/CA/San-Francisco/1742-34th-Ave-94122/home/643606,San Francisco MLS,472082,N,Y,37.7546037,-122.4923844
PAST SALE,June-15-2018,Single Family Residential,450 Yale St,San Francisco,CA,94134,1468000,3,2.0,Portola,1573,2958,1983,30,933,,Sold,,,http://www.redfin.com/CA/San-Francisco/450-Yale-St-94134/home/1623029,San Francisco MLS,471070,N,Y,37.7235818,-122.4164418
PAST SALE,June-19-2018,Townhouse,1285 Sunnydale Ave,San Francisco,CA,94134,715000,4,3.0,Visitacion Valley,1726,1425,1962,26,414,154,Sold,,,http://www.redfin.com/CA/San-Francisco/1285-Sunnydale-Ave-94134/home/1055921,San Francisco MLS,470785,N,Y,37.7112461,-122.4142738
PAST SALE,June-19-2018,Condo/Co-op,520 Natoma St #7,San Francisco,CA,94103,425000,0,1.0,South of Market,,,1911,26,,258,Sold,,,http://www.redfin.com/CA/San-Francisco/520-Natoma-St-94103/unit-7/home/102818482,San Francisco MLS,471440,N,Y,37.779856,-122.4083003
PAST SALE,June-22-2018,Condo/Co-op,99 Rausch #324,San Francisco,CA,94103,994000,1,1.0,South of Market,726,,,23,1369,625,Sold,,,http://www.redfin.com/CA/San-Francisco/99-Rausch-St-94103/unit-324/home/145093974,San Francisco MLS,468146,N,Y,37.7761989,-122.4090638
PAST SALE,June-22-2018,Condo/Co-op,99 Rausch St #619,San Francisco,CA,94103,1595000,2,2.0,South of Market,947,,2018,23,1684,758,Sold,,,http://www.redfin.com/CA/San-Francisco/99-Rausch-St-94103/unit-619/home/145093997,San Francisco MLS,468150,N,Y,37.7761989,-122.4090638
PAST SALE,June-22-2018,Townhouse,99 Rausch St #525,San Francisco,CA,94103,2600000,2,2.0,South of Market,1458,,2018,23,1783,890,Sold,,,http://www.redfin.com/CA/San-Francisco/99-Rausch-St-94103/unit-525/home/145126935,San Francisco MLS,468336,N,Y,37.7761989,-122.4090638
PAST SALE,June-22-2018,Condo/Co-op,99 Rausch St #520,San Francisco,CA,94103,669000,0,1.0,South of Market,401,,,23,1668,515,Sold,,,http://www.redfin.com/CA/San-Francisco/99-Rausch-St-94103/unit-520/home/146111048,San Francisco MLS,472748,N,Y,37.7761989,-122.4090638
PAST SALE,,Condo/Co-op,250 King St Unit 1000,San Francisco,CA,94107,1345000,2,2.0,,1219,,2004,,1103,,,,,http://www.redfin.com/CA/San-Francisco/250-King-St-94107/unit-1000/home/22889613,,,N,Y,37.7783051,-122.3930552
PAST SALE,June-29-2018,Condo/Co-op,250 King St #656,San Francisco,CA,94107,830000,1,1.0,Mission Bay,916,,2004,16,906,815,Sold,,,http://www.redfin.com/CA/San-Francisco/250-King-St-94107/unit-656/home/8191066,San Francisco MLS,469447,N,Y,37.7783051,-122.3930552
PAST SALE,July-2-2018,Condo/Co-op,72 Townsend St #504,San Francisco,CA,94107,1550000,2,2.0,South Beach,1260,,2015,13,1230,867,Sold,,,http://www.redfin.com/CA/San-Francisco/72-Townsend-St-94107/unit-504/home/104018858,San Francisco MLS,470836,N,Y,37.7812595,-122.3902125
PAST SALE,June-19-2018,Condo/Co-op,1075 Market St #803,San Francisco,CA,94103,628000,0,1.0,South of Market,445,,2018,26,1411,586,Sold,,,http://www.redfin.com/CA/San-Francisco/1075-Market-St-94103/unit-803/home/145117726,San Francisco MLS,468251,N,Y,37.780644,-122.411615
PAST SALE,June-15-2018,Condo/Co-op,4 Clarence Pl,San Francisco,CA,94107,3000000,3,3.0,South Beach,,,1998,30,,437,Sold,,,http://www.redfin.com/CA/San-Francisco/4-Clarence-Pl-94107/home/12397156,San Francisco MLS,472965,N,Y,37.7798738,-122.3930723
PAST SALE,July-11-2018,Condo/Co-op,357 Tehama St #3,San Francisco,CA,94103,4050000,3,2.0,South of Market,3452,,1910,4,1173,621,Sold,,,http://www.redfin.com/CA/San-Francisco/357-Tehama-St-94103/unit-3/home/1895716,San Francisco MLS,469888,N,Y,37.7817007,-122.4033885
PAST SALE,July-13-2018,Condo/Co-op,555 4th #539,SAN FRANCISCO,CA,94107,809000,1,1.0,SAN FRANCISCO,752,,2006,2,1076,647,Sold,,,http://www.redfin.com/CA/San-Francisco/555-4th-St-94107/unit-539/home/12402573,MLSListings,ML81705236,N,Y,37.7794218,-122.3967124
PAST SALE,July-12-2018,Condo/Co-op,1075 Market St #501,San Francisco,CA,94103,630000,0,1.0,South of Market,500,,2018,3,1260,623,Sold,,,http://www.redfin.com/CA/San-Francisco/1075-Market-St-94103/unit-501/home/145502216,San Francisco MLS,470099,N,Y,37.780644,-122.411615
PAST SALE,June-21-2018,Condo/Co-op,88 King St #608,San Francisco,CA,94107,1350000,2,2.0,South Beach,1205,,2000,24,1120,1004,Sold,,,http://www.redfin.com/CA/San-Francisco/88-King-St-94107/unit-608/home/1957882,San Francisco MLS,470011,N,Y,37.7806302,-122.3896249
PAST SALE,July-9-2018,Condo/Co-op,3701 Clay St #3,San Francisco,CA,94115,2170000,3,2.0,Presidio Heights,2270,,1904,6,956,1278,Sold,,,http://www.redfin.com/CA/San-Francisco/3701-Clay-St-94118/unit-3/home/2026628,San Francisco MLS,469637,N,Y,37.7880884,-122.4539999
PAST SALE,July-2-2018,Single Family Residential,146 Jordan Ave,San Francisco,CA,94118,5200000,5,4.5,Jordan Park/Laurel Heights,4652,4000,1905,13,1118,,Sold,,,http://www.redfin.com/CA/San-Francisco/146-Jordan-Ave-94118/home/1260919,San Francisco MLS,473210,N,Y,37.7827879,-122.456387
PAST SALE,July-13-2018,Condo/Co-op,26 Heather Ave,San Francisco,CA,94118,1008000,1,1.0,Jordan Park/Laurel Heights,918,,1949,2,1098,300,Sold,,,http://www.redfin.com/CA/San-Francisco/26-Heather-Ave-94118/home/2018371,San Francisco MLS,468905,N,Y,37.785265,-122.452633
PAST SALE,June-15-2018,Condo/Co-op,735 Geary St #201,San Francisco,CA,94109,700000,1,1.0,Downtown,834,,1922,30,839,427,Sold,,,http://www.redfin.com/CA/San-Francisco/735-Geary-St-94109/unit-201/home/145627989,San Francisco MLS,470845,N,Y,37.7862505,-122.4154684
PAST SALE,June-25-2018,Condo/Co-op,818 Van Ness Ave #402,San Francisco,CA,94109,938000,1,1.0,Van Ness/Civic Center,,,2008,20,,579,Sold,,,http://www.redfin.com/CA/San-Francisco/818-Van-Ness-Ave-94109/unit-402/home/40138557,San Francisco MLS,468368,N,Y,37.7832423,-122.4204784
PAST SALE,June-28-2018,Single Family Residential,733 Capitol Ave,SAN FRANCISCO,CA,94112,1175000,2,2.5,SAN FRANCISCO,1423,4500,1916,17,826,,Sold,,,http://www.redfin.com/CA/San-Francisco/733-Capitol-Ave-94112/home/1115209,MLSListings,ML81707875,N,Y,37.7170278,-122.4593074
PAST SALE,June-29-2018,Condo/Co-op,1731 Noe St,San Francisco,CA,94131,1665000,3,1.0,Glen Park,1412,,1913,16,1179,369,Sold,,,http://www.redfin.com/CA/San-Francisco/1731-Noe-St-94131/home/1815801,San Francisco MLS,471107,N,Y,37.741276,-122.43055
PAST SALE,July-13-2018,Single Family Residential,483 30th St,San Francisco,CA,94131,1900000,3,2.5,Noe Valley,2550,3436,1910,2,745,,Sold,,,http://www.redfin.com/CA/San-Francisco/483-30th-St-94131/home/146073043,San Francisco MLS,472078,N,Y,37.741688,-122.4305996
PAST SALE,June-15-2018,Single Family Residential,1950 Monterey Blvd,San Francisco,CA,94127,3500000,5,4.0,St. Francis Wood,3878,7662,1925,30,903,272,Sold,,,http://www.redfin.com/CA/San-Francisco/1950-Monterey-Blvd-94127/home/2019154,San Francisco MLS,468981,N,Y,37.733375,-122.4693466
PAST SALE,June-29-2018,Single Family Residential,1331 Dolores St,San Francisco,CA,94110,2100000,3,2.0,Noe Valley,1575,2996,1900,16,1333,,Sold,,,http://www.redfin.com/CA/San-Francisco/1331-Dolores-St-94110/home/908341,San Francisco MLS,471327,N,Y,37.7481829,-122.4244943
PAST SALE,June-29-2018,Multi-Family (2-4 Unit),6-8 30th St,San Francisco,CA,94110,1375000,9,4.0,Noe Valley,2800,2935,1908,16,491,,Sold,,,http://www.redfin.com/CA/San-Francisco/8-30th-St-94110/home/102823477,San Francisco MLS,468267,N,Y,37.7424741,-122.4224011
PAST SALE,July-3-2018,Condo/Co-op,1292 Guerrero St,San Francisco,CA,94110,1500000,3,1.0,Noe Valley,1527,,,12,982,150,Sold,,,http://www.redfin.com/CA/San-Francisco/1292-Guerrero-St-94110/home/1009303,San Francisco MLS,471674,N,Y,37.7505676,-122.4229971
PAST SALE,June-27-2018,Multi-Family (2-4 Unit),517-519 Sanchez St,San Francisco,CA,94114,2000000,,,Eureka Valley/Dolore,2938,2748,1905,18,681,,Sold,,,http://www.redfin.com/CA/San-Francisco/519-Sanchez-St-94114/home/1719369,San Francisco MLS,470750,N,Y,37.760781,-122.430204
PAST SALE,July-2-2018,Single Family Residential,333 Diamond St,San Francisco,CA,94114,2500000,0,2.0,Eureka Valley/Dolore,1472,3125,1900,13,1698,,Sold,,,http://www.redfin.com/CA/San-Francisco/333-Diamond-St-94114/home/2000437,San Francisco MLS,472908,N,Y,37.7570512,-122.4365083
PAST SALE,July-2-2018,Condo/Co-op,260 Hartford St,San Francisco,CA,94114,1250000,3,1.0,Eureka Valley/Dolore,1009,,1912,13,1239,168,Sold,,,http://www.redfin.com/CA/San-Francisco/260-Hartford-St-94114/home/18986814,San Francisco MLS,471554,N,Y,37.7583974,-122.4338158
PAST SALE,June-22-2018,Condo/Co-op,38 A Sharon St,San Francisco,CA,94114,750000,1,1.0,Eureka Valley/Dolore,659,,1900,23,1138,259,Sold,,,http://www.redfin.com/CA/San-Francisco/38A-Sharon-St-94114/home/1678953,San Francisco MLS,469998,N,Y,37.765358,-122.430179
PAST SALE,June-20-2018,Condo/Co-op,261 Henry St,San Francisco,CA,94114,1800000,2,2.0,Corona Heights,,,1890,25,,350,Sold,,,http://www.redfin.com/CA/San-Francisco/261-Henry-St-94114/home/1985262,San Francisco MLS,471066,N,Y,37.766218,-122.436728
PAST SALE,June-26-2018,Single Family Residential,1484 Noe St,San Francisco,CA,94131,2750000,3,3.0,Noe Valley,,2040,1918,19,,,Sold,,,http://www.redfin.com/CA/San-Francisco/1484-Noe-St-94131/home/1066006,San Francisco MLS,469907,N,Y,37.7452691,-122.4315176
PAST SALE,June-26-2018,Single Family Residential,4061 Cesar Chavez,San Francisco,CA,94131,2350000,1,,Noe Valley,,,,19,,,Sold,,,http://www.redfin.com/CA/San-Francisco/4061-Cesar-Chavez-94131/home/1647455,San Francisco MLS,472788,N,Y,37.747243,-122.430539
PAST SALE,June-29-2018,Single Family Residential,477 Duncan St,San Francisco,CA,94131,1888888,2,1.0,Noe Valley,1068,3075,1936,16,1769,,Sold,,,http://www.redfin.com/CA/San-Francisco/477-Duncan-St-94131/home/1274367,San Francisco MLS,470683,N,Y,37.7457061,-122.4307323
PAST SALE,,Single Family Residential,527 30th St,San Francisco,CA,94131,2600000,,2.0,,1552,4375,1900,,1675,,,,,http://www.redfin.com/CA/San-Francisco/527-30th-St-94131/home/810688,,,N,Y,37.7416529,-122.4314401
PAST SALE,June-18-2018,Condo/Co-op,3983 25th St,San Francisco,CA,94114,1650000,2,1.5,Noe Valley,1207,,1906,27,1367,175,Sold,,,http://www.redfin.com/CA/San-Francisco/3983-25th-St-94114/home/1794649,San Francisco MLS,470778,N,Y,37.7497977,-122.4290512
PAST SALE,June-29-2018,Condo/Co-op,1845 Church St,San Francisco,CA,94131,1700000,2,1.0,Glen Park,1458,,1925,16,1166,250,Sold,,,http://www.redfin.com/CA/San-Francisco/1845-Church-St-94131/home/17304688,San Francisco MLS,471849,N,Y,37.7410141,-122.4265847
PAST SALE,June-26-2018,Single Family Residential,255 Ellington Ave,SAN FRANCISCO,CA,94112,1126666,3,1.5,SAN FRANCISCO,1325,2247,1932,19,850,,Sold,,,http://www.redfin.com/CA/San-Francisco/255-Ellington-Ave-94112/home/1205650,MLSListings,ML81704780,N,Y,37.7134833,-122.4448328
PAST SALE,July-10-2018,Single Family Residential,524 Brussels St,San Francisco,CA,94134,1350000,5,3.0,Portola,1697,2247,1975,5,796,,Sold,,,http://www.redfin.com/CA/San-Francisco/524-Brussels-St-94134/home/778387,San Francisco MLS,469352,N,Y,37.72548,-122.405177
PAST SALE,,Multi-Family (5+ Unit),338 Alemany Blvd,San Francisco,CA,94110,1000000,,4.0,,2330,2077,1964,,429,,,,,http://www.redfin.com/CA/San-Francisco/338-Alemany-Blvd-94110/home/764815,,,N,Y,37.7339956,-122.4128579
PAST SALE,June-27-2018,Multi-Family (5+ Unit),1460 Golden Gate Ave,San Francisco,CA,94115,9450000,12,,Western Addition,17208,8256,1928,18,549,,Sold,,,http://www.redfin.com/CA/San-Francisco/1460-Golden-Gate-Ave-94115/home/1871931,San Francisco MLS,469759,N,Y,37.7793921,-122.434559
PAST SALE,June-27-2018,Condo/Co-op,1500-1504 McAllister St Unit 1500B,San Francisco,CA,94115,1595000,3,2.0,Alamo Square,1620,,1904,18,985,1018,Sold,,,http://www.redfin.com/CA/San-Francisco/1504-McAllister-St-94115/unit-1500B/home/144096281,San Francisco MLS,468573,N,Y,37.7781966,-122.436915
PAST SALE,July-12-2018,Condo/Co-op,1949 Ofarrell St,San Francisco,CA,94115,1275000,3,1.5,Western Addition,,,1890,3,,660,Sold,,,http://www.redfin.com/CA/San-Francisco/1949-O-Farrell-St-94115/home/1460019,San Francisco MLS,471369,N,Y,37.782489,-122.43676
PAST SALE,June-29-2018,Condo/Co-op,175 Russ St #16,San Francisco,CA,94103,1000000,1,1.5,South of Market,962,,2003,16,1040,601,Sold,,,http://www.redfin.com/CA/San-Francisco/175-Russ-St-94103/unit-16/home/12401100,San Francisco MLS,471073,N,Y,37.778158,-122.406991
PAST SALE,June-29-2018,Condo/Co-op,99 Rausch St #202,San Francisco,CA,94103,799000,1,1.0,South of Market,625,,,16,1278,590,Sold,,,http://www.redfin.com/CA/San-Francisco/99-Rausch-St-94103/unit-202/home/145745782,San Francisco MLS,471265,N,Y,37.7761989,-122.4090638
PAST SALE,July-6-2018,Condo/Co-op,1160 Mission St #1711,San Francisco,CA,94103,840000,1,1.0,South of Market,765,,2008,9,1098,708,Sold,,,http://www.redfin.com/CA/San-Francisco/1160-Mission-St-94103/unit-1711/home/17306801,San Francisco MLS,471370,N,Y,37.7783901,-122.412238
PAST SALE,June-22-2018,Condo/Co-op,99 Rausch St #209,San Francisco,CA,94103,779000,1,1.0,South of Market,656,,,23,1188,601,Sold,,,http://www.redfin.com/CA/San-Francisco/99-Rausch-St-94103/unit-209/home/145368333,San Francisco MLS,469847,N,Y,37.7761989,-122.4090638
PAST SALE,June-22-2018,Condo/Co-op,99 Rausch St #208,San Francisco,CA,94103,809000,1,1.0,South of Market,684,,,23,1183,611,Sold,,,http://www.redfin.com/CA/San-Francisco/99-Rausch-St-94103/unit-208/home/145296604,San Francisco MLS,469413,N,Y,37.7761989,-122.4090638
PAST SALE,July-10-2018,Condo/Co-op,55 Page St #215,San Francisco,CA,94102,1000000,1,1.0,Hayes Valley,855,,2008,5,1170,585,Sold,,,http://www.redfin.com/CA/San-Francisco/55-Page-St-94102/unit-215/home/17306602,San Francisco MLS,472307,N,Y,37.7739785,-122.4220051
PAST SALE,,Multi-Family (5+ Unit),819-829 Hampshire St,San Francisco,CA,94110,,,,,,,,,,,Sold,,,http://www.redfin.com/CA/San-Francisco/829-Hampshire-St-94110/home/145164238,San Francisco MLS,,N,Y,37.7588086,-122.4077622
PAST SALE,July-3-2018,Multi-Family (2-4 Unit),1260-1262 De Haro St,San Francisco,CA,94107,1875000,4,3.0,Potrero Hill,,2495,1900,12,,,Sold,,,http://www.redfin.com/CA/San-Francisco/1262-De-Haro-St-94107/home/1463619,San Francisco MLS,470379,N,Y,37.753798,-122.400858
PAST SALE,July-6-2018,Single Family Residential,178 Ripley St,San Francisco,CA,94110,2800000,3,2.5,Bernal Heights,1875,2247,1990,9,1493,,Sold,,,http://www.redfin.com/CA/San-Francisco/178-Ripley-St-94110/home/1622616,San Francisco MLS,471422,N,Y,37.7441522,-122.4109552
PAST SALE,July-10-2018,Single Family Residential,1628 York St,San Francisco,CA,94110,2150000,3,2.0,Bernal Heights,2200,1753,1902,5,977,,Sold,,,http://www.redfin.com/CA/San-Francisco/1628-York-St-94110/home/1990258,San Francisco MLS,471706,N,Y,37.7471234,-122.4066188
PAST SALE,July-6-2018,Condo/Co-op,2101 Bryant St #101,San Francisco,CA,94110,950000,1,1.0,Inner Mission,817,,2009,9,1163,427,Sold,,,http://www.redfin.com/CA/San-Francisco/2101-Bryant-St-94110/unit-101/home/40138094,San Francisco MLS,473228,N,Y,37.7597962,-122.4095734
PAST SALE,July-2-2018,Single Family Residential,63 Prague St,San Francisco,CA,94112,1286000,3,1.0,Excelsior,1160,2752,1958,13,1109,,Sold,,,http://www.redfin.com/CA/San-Francisco/63-Prague-St-94112/home/2001326,San Francisco MLS,471575,N,Y,37.7211268,-122.4253681
PAST SALE,July-2-2018,Single Family Residential,744 Brazil Ave,San Francisco,CA,94112,800000,2,1.0,Excelsior,1480,1750,1924,13,541,,Sold,,,http://www.redfin.com/CA/San-Francisco/744-Brazil-Ave-94112/home/40629567,San Francisco MLS,470459,N,Y,37.721651,-122.4286087
PAST SALE,July-10-2018,Single Family Residential,755 Vienna St,San Francisco,CA,94112,1285000,3,2.0,Excelsior,1630,2500,1911,5,788,,Sold,,,http://www.redfin.com/CA/San-Francisco/755-Vienna-St-94112/home/966881,San Francisco MLS,471328,N,Y,37.716369,-122.43316
PAST SALE,July-6-2018,Single Family Residential,312 Caselli Ave,San Francisco,CA,94114,2100000,3,2.0,Eureka Valley/Dolore,1803,2225,1893,9,1165,,Sold,,,http://www.redfin.com/CA/San-Francisco/312-Caselli-Ave-94114/home/1878447,San Francisco MLS,471749,N,Y,37.7590428,-122.4441693
PAST SALE,July-13-2018,Condo/Co-op,1225 Waller St,San Francisco,CA,94117,1050000,2,1.0,Buena Vista Park,1483,,1900,2,708,227,Sold,,,http://www.redfin.com/CA/San-Francisco/1225-Waller-St-94117/home/1031444,San Francisco MLS,469457,N,Y,37.769213,-122.4438707
PAST SALE,,Condo/Co-op,219 Brannan St Unit 2B,San Francisco,CA,94107,1200000,2,2.0,,1062,,2000,,1130,,,,,http://www.redfin.com/CA/San-Francisco/219-Brannan-St-94107/unit-2B/home/1570353,,,N,Y,37.7830623,-122.3901122
PAST SALE,June-20-2018,Condo/Co-op,403 Main Unit 605N,San Francisco,CA,94105,580000,1,1.0,South Beach,493,,,25,1176,402,Sold,,,http://www.redfin.com/CA/San-Francisco/403-Main-St-94105/unit-605N/home/1933589,San Francisco MLS,468386,N,Y,37.7880767,-122.3896032
PAST SALE,,Single Family Residential,2523 34th Ave,San Francisco,CA,94116,,2,1.0,,1275,3000,1931,,,,Sold,,,http://www.redfin.com/CA/San-Francisco/2523-34th-Ave-94116/home/1773283,San Francisco MLS,,N,Y,37.7399897,-122.4919203
PAST SALE,July-3-2018,Multi-Family (2-4 Unit),659-661 14th Ave,San Francisco,CA,94118,2317500,2,2.0,Central Richmond,3560,3497,1919,12,651,,Sold,,,http://www.redfin.com/CA/San-Francisco/661-14th-Ave-94118/home/2026926,San Francisco MLS,470657,N,Y,37.7757383,-122.4726604
PAST SALE,July-10-2018,Single Family Residential,1435 5th Ave,San Francisco,CA,94122,3125000,4,3.0,Inner Sunset,2920,3000,1910,5,1070,,Sold,,,http://www.redfin.com/CA/San-Francisco/1435-5th-Ave-94122/home/1493334,San Francisco MLS,472199,N,Y,37.761673,-122.4621048
PAST SALE,June-29-2018,Single Family Residential,2200 45th Ave,San Francisco,CA,94116,770000,2,1.0,Outer Parkside,962,2700,1942,16,800,,Sold,,,http://www.redfin.com/CA/San-Francisco/2200-45th-Ave-94116/home/1428514,San Francisco MLS,470576,N,Y,37.7454048,-122.5035675
PAST SALE,,Condo/Co-op,8 Buchanan St Unit 507,San Francisco,CA,94102,805000,1,1.0,,636,,2014,,1266,,,,,http://www.redfin.com/CA/San-Francisco/8-Buchanan-St-94102/unit-507/home/110051656,,,N,Y,37.7699869,-122.4264516
PAST SALE,June-25-2018,Condo/Co-op,219 Lily St,San Francisco,CA,94102,1225000,2,1.0,Hayes Valley,1038,,,20,1180,377,Sold,,,http://www.redfin.com/CA/San-Francisco/219-Lily-St-94102/home/145921538,San Francisco MLS,468538,N,Y,37.774135,-122.424517
PAST SALE,June-22-2018,Condo/Co-op,2531 Gough St,San Francisco,CA,94123,2450000,3,2.0,Pacific Heights,,,1903,23,,,Sold,,,http://www.redfin.com/CA/San-Francisco/2531-Gough-St-94123/home/1514576,San Francisco MLS,471338,N,Y,37.7969861,-122.4272925
PAST SALE,June-25-2018,Condo/Co-op,5900 3rd St #2212,SAN FRANCISCO,CA,94124,595000,1,1.0,SAN FRANCISCO,825,128582,2012,20,721,365,Sold,,,http://www.redfin.com/CA/San-Francisco/5900-3rd-St-94124/unit-2212/home/40629182,MLSListings,ML81704730,N,Y,37.7250528,-122.3951255
PAST SALE,,Condo/Co-op,1351 Minna St,San Francisco,CA,94103,1300000,,,,1212,,1907,,1073,,,,,http://www.redfin.com/CA/San-Francisco/1351-Minna-St-94103/home/110051756,,,N,Y,37.7675434,-122.4190043
PAST SALE,June-22-2018,Single Family Residential,1260 16th Ave,SAN FRANCISCO,CA,94122,1500000,3,3.0,SAN FRANCISCO,1996,3184,1908,23,752,,Sold,,,http://www.redfin.com/CA/San-Francisco/1260-16th-Ave-94122/home/903475,MLSListings,ML81705187,N,Y,37.7644857,-122.4737247
PAST SALE,June-27-2018,Single Family Residential,446 Hill St,SAN FRANCISCO,CA,94114,1725000,3,2.0,SAN FRANCISCO,1425,2848,1959,18,1211,,Sold,,,http://www.redfin.com/CA/San-Francisco/446-Hill-St-94114/home/1719439,MLSListings,ML81704218,N,Y,37.7557484,-122.4311305
PAST SALE,July-6-2018,Condo/Co-op,105 Palm Ave #5,San Francisco,CA,94118,1305000,2,1.0,Jordan Park/Laurel Heights,1281,,1900,9,1019,470,Sold,,,http://www.redfin.com/CA/San-Francisco/105-Palm-Ave-94118/unit-5/home/114071061,San Francisco MLS,471823,N,Y,37.7837043,-122.458268
PAST SALE,July-6-2018,Single Family Residential,558 Arguello Blvd,San Francisco,CA,94118,1800000,3,1.5,Lone Mountain,1428,2796,1939,9,1261,,Sold,,,http://www.redfin.com/CA/San-Francisco/558-Arguello-Blvd-94118/home/1996102,San Francisco MLS,472414,N,Y,37.7801737,-122.4585555
PAST SALE,June-22-2018,Multi-Family (2-4 Unit),409-411 Bartlett St,San Francisco,CA,94110,1698000,4,2.0,Inner Mission,1760,1285,1906,23,965,,Sold,,,http://www.redfin.com/CA/San-Francisco/411-Bartlett-St-94110/home/113739926,San Francisco MLS,470446,N,Y,37.7502075,-122.4192632
PAST SALE,July-3-2018,Single Family Residential,70 Anderson St,San Francisco,CA,94110,2075000,3,2.0,Bernal Heights,1674,1746,1976,12,1240,,Sold,,,http://www.redfin.com/CA/San-Francisco/70-Anderson-St-94110/home/759536,San Francisco MLS,470661,N,Y,37.7419774,-122.415214
PAST SALE,July-3-2018,Multi-Family (2-4 Unit),28-30 Santa Marina St,San Francisco,CA,94110,2130000,6,4.0,Bernal Heights,2872,2500,1977,12,742,,Sold,,,http://www.redfin.com/CA/San-Francisco/28-Santa-Marina-St-94110/home/1986126,San Francisco MLS,470688,N,Y,37.7401767,-122.4225598
PAST SALE,July-6-2018,Condo/Co-op,2876 Washington St,San Francisco,CA,94115,3300000,3,3.5,Pacific Heights,,,1903,9,,1722,Sold,,,http://www.redfin.com/CA/San-Francisco/2876-Washington-St-94115/home/35612034,San Francisco MLS,470233,N,Y,37.7908862,-122.4407175
PAST SALE,June-26-2018,Single Family Residential,3520 Fulton St,San Francisco,CA,94118,1500000,4,2.0,Inner Richmond,2480,1999,1924,19,605,,Sold,,,http://www.redfin.com/CA/San-Francisco/3520-Fulton-St-94118/home/1100609,San Francisco MLS,472106,N,Y,37.7734697,-122.4695678
PAST SALE,June-26-2018,Multi-Family (5+ Unit),457 8th Ave,San Francisco,CA,94118,3450000,10,,Inner Richmond,5496,2996,1960,19,628,,Sold,,,http://www.redfin.com/CA/San-Francisco/457-8th-Ave-94118/home/614586,San Francisco MLS,470925,N,Y,37.7797409,-122.4666047
PAST SALE,July-5-2018,Multi-Family (5+ Unit),280 10th Ave,San Francisco,CA,94118,2400000,10,,Inner Richmond,4472,2996,1961,10,537,,Sold,,,http://www.redfin.com/CA/San-Francisco/280-10th-Ave-94118/home/1992202,San Francisco MLS,472204,N,Y,37.7832067,-122.468429
PAST SALE,July-3-2018,Single Family Residential,151 24th Ave,San Francisco,CA,94121,4950000,5,4.5,Lake,5450,5998,1904,12,908,,Sold,,,http://www.redfin.com/CA/San-Francisco/151-24th-Ave-94121/home/606372,San Francisco MLS,470334,N,Y,37.7867161,-122.4842932
PAST SALE,July-6-2018,Condo/Co-op,1120 Hampshire St,San Francisco,CA,94110,825000,2,1.0,Inner Mission,800,,1910,9,1031,400,Sold,,,http://www.redfin.com/CA/San-Francisco/1120-Hampshire-St-94110/home/53460262,San Francisco MLS,471940,N,Y,37.7540914,-122.4077229
PAST SALE,June-21-2018,Single Family Residential,591 Clipper St,San Francisco,CA,94114,1600000,2,1.0,Noe Valley,,,1921,24,,,Sold,,,http://www.redfin.com/CA/San-Francisco/591-Clipper-St-94114/home/1559702,San Francisco MLS,470824,N,Y,37.7484862,-122.4380265
PAST SALE,June-21-2018,Townhouse,350 Arkansas St,San Francisco,CA,94107,1540000,2,2.0,Potrero Hill,1340,,1995,24,1149,661,Sold,,,http://www.redfin.com/CA/San-Francisco/350-Arkansas-St-94107/home/1774550,San Francisco MLS,470659,N,Y,37.761887,-122.398766
PAST SALE,July-11-2018,Single Family Residential,2239 29th Ave,SAN FRANCISCO,CA,94116,2228000,4,4.5,SAN FRANCISCO,2106,3000,1940,4,1058,,Sold,,,http://www.redfin.com/CA/San-Francisco/2239-29th-Ave-94116/home/1556986,MLSListings,ML81711307,N,Y,37.7455349,-122.486941
PAST SALE,June-22-2018,Condo/Co-op,1248 34th Ave,San Francisco,CA,94122,1105000,2,1.0,Central Sunset,1147,,1948,23,963,250,Sold,,,http://www.redfin.com/CA/San-Francisco/1246-34th-Ave-94122/home/1041672,San Francisco MLS,470508,N,Y,37.7638347,-122.4929385
PAST SALE,July-12-2018,Multi-Family (2-4 Unit),602-604 30th Ave,San Francisco,CA,94121,1912500,7,5.0,Central Richmond,4020,3113,1939,3,476,,Sold,,,http://www.redfin.com/CA/San-Francisco/602-30th-Ave-94121/home/146217277,San Francisco MLS,470589,N,Y,37.7777745,-122.4896723
PAST SALE,June-18-2018,Condo/Co-op,3615 Buchanan #206,San Francisco,CA,94123,1525000,2,2.0,Marina,1338,,,27,1140,584,Sold,,,http://www.redfin.com/CA/San-Francisco/3615-Buchanan-St-94123/unit-206/home/112897321,San Francisco MLS,472615,N,Y,37.8033794,-122.4335554
PAST SALE,June-15-2018,Multi-Family (2-4 Unit),2424 Gough St,San Francisco,CA,94123,4995000,6,5.0,Pacific Heights,5740,2247,1900,30,870,,Sold,,,http://www.redfin.com/CA/San-Francisco/2424-Gough-St-94123/home/563476,San Francisco MLS,471233,N,Y,37.7962053,-122.4266622
PAST SALE,June-18-2018,Condo/Co-op,783 9th Ave,San Francisco,CA,94118,1425000,2,1.0,Inner Richmond,1315,,1916,27,1084,250,Sold,,,http://www.redfin.com/CA/San-Francisco/783-9th-Ave-94118/home/40138418,San Francisco MLS,470775,N,Y,37.7737081,-122.4672239
PAST SALE,June-15-2018,Single Family Residential,1293 37th Ave,San Francisco,CA,94122,2200000,4,3.5,Outer Sunset,2473,2375,1913,30,890,,Sold,,,http://www.redfin.com/CA/San-Francisco/1293-37th-Ave-94122/home/1137517,San Francisco MLS,470808,N,Y,37.7629193,-122.4966733
PAST SALE,July-9-2018,Condo/Co-op,333 Bush St #4101,San Francisco,CA,94104,1499000,2,2.0,Financial District,1250,,1987,6,1199,1311,Sold,,,http://www.redfin.com/CA/San-Francisco/333-Bush-St-94104/unit-4101/home/1674767,San Francisco MLS,470721,N,Y,37.7907013,-122.4032681
PAST SALE,June-18-2018,Condo/Co-op,1 Hawthorne St Unit 7G,San Francisco,CA,94105,980000,1,1.0,Yerba Buena,863,,2010,27,1136,723,Sold,,,http://www.redfin.com/CA/San-Francisco/1-Hawthorne-St-94105/unit-7G/home/40138662,San Francisco MLS,469085,N,Y,37.7857356,-122.3989521
PAST SALE,June-22-2018,Condo/Co-op,3700 Divisadero St #303,San Francisco,CA,94123,1615000,2,2.0,Marina,1249,,1993,23,1293,625,Sold,,,http://www.redfin.com/CA/San-Francisco/3700-Divisadero-St-94123/unit-303/home/891691,San Francisco MLS,470259,N,Y,37.8039073,-122.4434063
PAST SALE,July-9-2018,Single Family Residential,824 Waller St,San Francisco,CA,94117,1748000,3,2.5,Buena Vista Park,,,,6,,,Sold,,,http://www.redfin.com/CA/San-Francisco/824-Waller-St-94117/home/145631435,San Francisco MLS,470908,N,Y,37.77049,-122.43742
PAST SALE,June-20-2018,Condo/Co-op,2830 Pierce St,San Francisco,CA,94123,2100000,3,2.0,Cow Hollow,,,1900,25,,250,Sold,,,http://www.redfin.com/CA/San-Francisco/2830-Pierce-St-94123/unit-2630/home/1925869,San Francisco MLS,471475,N,Y,37.796205,-122.438383
PAST SALE,June-20-2018,Multi-Family (5+ Unit),1247 Fulton St,San Francisco,CA,94117,3200000,6,,Alamo Square,5175,3507,1907,25,618,,Sold,,,http://www.redfin.com/CA/San-Francisco/1247-Fulton-St-94117/home/595820,San Francisco MLS,468422,N,Y,37.7767499,-122.4372796
PAST SALE,June-25-2018,Condo/Co-op,784 Bay St,San Francisco,CA,94109,1815000,2,2.0,Russian Hill,1420,,,20,1278,200,Sold,,,http://www.redfin.com/CA/San-Francisco/784-Bay-St-94109/home/846868,San Francisco MLS,471108,N,Y,37.8049832,-122.4198512
PAST SALE,June-15-2018,Condo/Co-op,352 San Carlos,San Francisco,CA,94110,715000,2,1.0,Inner Mission,824,,1900,30,868,270,Sold,,,http://www.redfin.com/CA/San-Francisco/352-San-Carlos-St-94110/home/2004791,San Francisco MLS,469461,N,Y,37.7577254,-122.4198982
PAST SALE,July-6-2018,Condo/Co-op,807 Guerrero St,San Francisco,CA,94110,1460000,2,1.0,Eureka Valley/Dolore,,,1906,9,,,Sold,,,http://www.redfin.com/CA/San-Francisco/807-Guerrero-St-94110/home/1285987,San Francisco MLS,471735,N,Y,37.758194,-122.423155
PAST SALE,July-5-2018,Condo/Co-op,2111 Hyde St #501,San Francisco,CA,94109,2325000,2,2.0,Russian Hill,1870,,,10,1243,988,Sold,,,http://www.redfin.com/CA/San-Francisco/2111-Hyde-St-94109/unit-501/home/12399873,San Francisco MLS,466100,N,Y,37.8002924,-122.4196054
PAST SALE,June-27-2018,Single Family Residential,2153 20th Ave,San Francisco,CA,94116,1650000,3,3.0,Parkside,2173,3000,1926,18,759,,Sold,,,http://www.redfin.com/CA/San-Francisco/2153-20th-Ave-94116/home/1789977,San Francisco MLS,471416,N,Y,37.747587,-122.477412
PAST SALE,July-10-2018,Single Family Residential,1542 24th Ave,San Francisco,CA,94122,1575000,2,1.0,Central Sunset,1500,2996,1939,5,1050,,Sold,,,http://www.redfin.com/CA/San-Francisco/1542-24th-Ave-94122/home/633011,San Francisco MLS,471404,N,Y,37.7587878,-122.4819496
PAST SALE,June-22-2018,Single Family Residential,1879 23rd Ave,San Francisco,CA,94122,1720000,3,3.0,Central Sunset,1750,3000,1938,23,983,,Sold,,,http://www.redfin.com/CA/San-Francisco/1879-23rd-Ave-94122/home/1652528,San Francisco MLS,469962,N,Y,37.7526017,-122.4808884
PAST SALE,,Single Family Residential,632 Foerster St,San Francisco,CA,94127,1000000,,1.0,,1244,2495,1950,,804,,,,,http://www.redfin.com/CA/San-Francisco/632-Foerster-St-94127/home/1766849,,,N,Y,37.7335426,-122.4486037
PAST SALE,,Single Family Residential,563 Athens St,San Francisco,CA,94112,601000,,1.0,,1250,2495,1916,,481,,,,,http://www.redfin.com/CA/San-Francisco/563-Athens-St-94112/home/1934384,,,N,Y,37.7190128,-122.430124
PAST SALE,June-15-2018,Condo/Co-op,300 Beale St #305,San Francisco,CA,94105,1095000,1,1.0,South Beach,1096,,1937,30,999,797,Sold,,,http://www.redfin.com/CA/San-Francisco/300-Beale-St-94105/unit-305/home/12395840,San Francisco MLS,470476,N,Y,37.788369,-122.392577
PAST SALE,,Multi-Family (5+ Unit),318 Main St Unit 5H,San Francisco,CA,94105,1900000,2,2.0,,1434,,2015,,1325,,,,,http://www.redfin.com/CA/San-Francisco/318-Main-St-94105/unit-5H/home/109465016,,,N,Y,37.7891933,-122.3917702
PAST SALE,,Condo/Co-op,2002 3rd St #105,San Francisco,CA,94107,,,2.0,,1332,,2002,,,,Sold,,,http://www.redfin.com/CA/San-Francisco/2002-3rd-St-94107/unit-105/home/12398791,San Francisco MLS,,N,Y,37.7639884,-122.3891649
PAST SALE,June-20-2018,Condo/Co-op,1310 Minnesota St #301,San Francisco,CA,94107,1200000,1,2.0,Central Waterfront,1060,,2002,25,1132,380,Sold,,,http://www.redfin.com/CA/San-Francisco/1310-Minnesota-St-94107/unit-301/home/12399541,San Francisco MLS,470815,N,Y,37.7536932,-122.3900667
PAST SALE,June-22-2018,Condo/Co-op,1 Western Shore Ln #1,San Francisco,CA,94115,460000,1,1.0,Western Addition,550,,1963,23,836,544,Sold,,,http://www.redfin.com/CA/San-Francisco/1-Western-Shore-Ln-94115/unit-1/home/12401189,San Francisco MLS,469164,N,Y,37.7842428,-122.4286183
PAST SALE,June-19-2018,Condo/Co-op,3322 Market St,SAN FRANCISCO,CA,94114,2270000,3,2.5,SAN FRANCISCO,2496,2686,2000,26,909,300,Sold,,,http://www.redfin.com/CA/San-Francisco/3322-Market-St-94114/home/1777044,MLSListings,ML81699459,N,Y,37.758103,-122.444241
PAST SALE,June-15-2018,Condo/Co-op,1070 Green St #201,San Francisco,CA,94133,2850000,2,2.0,Russian Hill,1616,,1963,30,1764,1845,Sold,,,http://www.redfin.com/CA/San-Francisco/1070-Green-St-94133/unit-201/home/1881697,San Francisco MLS,466605,N,Y,37.7987899,-122.416799
PAST SALE,,Multi-Family (5+ Unit),733 Chestnut St Apt 7,San Francisco,CA,94133,770000,,7.0,,4919,4125,1958,,157,,,,,http://www.redfin.com/CA/San-Francisco/733-Chestnut-St-94133/unit-7/home/978535,,,N,Y,37.803196,-122.415448
PAST SALE,June-18-2018,Single Family Residential,304 Diamond St,San Francisco,CA,94114,3850000,3,4.0,Eureka Valley/Dolore,3340,3125,1913,27,1153,,Sold,,,http://www.redfin.com/CA/San-Francisco/304-Diamond-St-94114/home/1138749,San Francisco MLS,469245,N,Y,37.7571638,-122.4370584
PAST SALE,June-15-2018,Condo/Co-op,3933 25th St,San Francisco,CA,94114,1350000,2,1.0,Noe Valley,1185,,1895,30,1139,268,Sold,,,http://www.redfin.com/CA/San-Francisco/3933-25th-St-94114/home/108957434,San Francisco MLS,470620,N,Y,37.749804,-122.42807
PAST SALE,,Multi-Family (2-4 Unit),3935 25th St,San Francisco,CA,94114,1350000,,2.0,,1850,3235,1895,,730,,,,,http://www.redfin.com/CA/San-Francisco/3935-25th-St-94114/home/927792,,,N,Y,37.7499282,-122.4280866
PAST SALE,June-25-2018,Condo/Co-op,159 Clifford Ter,San Francisco,CA,94117,1235000,2,2.0,Buena Vista Park,,,1926,20,,345,Sold,,,http://www.redfin.com/CA/San-Francisco/159-Clifford-Ter-94117/home/39910713,San Francisco MLS,468459,N,Y,37.763898,-122.445385
PAST SALE,,Condo/Co-op,690 Market St Unit 701,San Francisco,CA,94104,1050000,1,1.0,,1336,,2007,,786,,,,,http://www.redfin.com/CA/San-Francisco/690-Market-St-94104/unit-701/home/21967159,,,N,Y,37.7882479,-122.4032322
PAST SALE,June-29-2018,Single Family Residential,125 Britton St,SAN FRANCISCO,CA,94134,590000,1,1.0,SAN FRANCISCO,650,4142,1925,16,908,,Sold,,,http://www.redfin.com/CA/San-Francisco/125-Britton-St-94134/home/1045786,MLSListings,ML81706442,N,Y,37.7120617,-122.4125592
PAST SALE,June-28-2018,Multi-Family (2-4 Unit),1825 1825A Scott St,San Francisco,CA,94115,3200000,,,Lower Pacific Height,,,,17,,,Sold,,,http://www.redfin.com/CA/San-Francisco/1825-Scott-St-94115/unit-A/home/145658661,San Francisco MLS,471004,N,Y,37.786681,-122.438711
PAST SALE,June-15-2018,Single Family Residential,2454 1/2 Bush St,San Francisco,CA,94115,2500000,2,2.0,Lower Pacific Height,,2676,1865,30,,,Sold,,,http://www.redfin.com/CA/San-Francisco/2454-Bush-St-94115/home/52059387,San Francisco MLS,470835,N,Y,37.7867,-122.43769
PAST SALE,July-13-2018,Single Family Residential,319 Arkansas St,San Francisco,CA,94107,1826319,1,0.75,Potrero Hill,990,2500,1991,2,1845,,Sold,,,http://www.redfin.com/CA/San-Francisco/319-Arkansas-St-94107/home/1502573,San Francisco MLS,472187,N,Y,37.76208,-122.398111
PAST SALE,,Condo/Co-op,1275 Indiana St Unit 103,San Francisco,CA,94107,360000,2,2.0,,1094,,2014,,329,,,,,http://www.redfin.com/CA/San-Francisco/1275-Indiana-St-94107/unit-103/home/110052791,,,N,Y,37.7543157,-122.390359
PAST SALE,June-19-2018,Condo/Co-op,517 Vermont St,San Francisco,CA,94107,800000,1,1.5,Potrero Hill,907,,1930,26,882,1,Sold,,,http://www.redfin.com/CA/San-Francisco/517-Vermont-St-94107/home/40138880,San Francisco MLS,469364,N,Y,37.7631461,-122.4040458
PAST SALE,July-12-2018,Condo/Co-op,351 Buena Vista Ave #503,San Francisco,CA,94117,1185000,1,1.0,Buena Vista Park,829,,1987,3,1429,752,Sold,,,http://www.redfin.com/CA/San-Francisco/351-Buena-Vista-Ave-E-94117/unit-503/home/145998253,San Francisco MLS,471663,N,Y,37.766883,-122.439604
PAST SALE,,Condo/Co-op,350 Broderick St Apt 324,San Francisco,CA,94117,1499000,2,3.0,,1523,,2007,,984,,,,,http://www.redfin.com/CA/San-Francisco/350-Broderick-St-94117/unit-324/home/22888837,,,N,Y,37.7734397,-122.4387558
PAST SALE,July-11-2018,Condo/Co-op,336 Scott St,San Francisco,CA,94117,1905000,3,3.0,Hayes Valley,1764,,1906,4,1080,427,Sold,,,http://www.redfin.com/CA/San-Francisco/336-Scott-St-94117/home/28938813,San Francisco MLS,472042,N,Y,37.772983,-122.435374
PAST SALE,June-15-2018,Condo/Co-op,685 Florida #2,San Francisco,CA,94110,2550000,3,2.0,Inner Mission,1752,,2018,30,1455,690,Sold,,,http://www.redfin.com/CA/San-Francisco/685-Florida-St-94110/unit-2/home/145838056,San Francisco MLS,471438,N,Y,37.760708,-122.410678
PAST SALE,June-20-2018,Condo/Co-op,2208 Mission St #505,San Francisco,CA,94110,1275000,3,2.0,Inner Mission,1173,,2009,25,1087,448,Sold,,,http://www.redfin.com/CA/San-Francisco/2208-Mission-St-94110/unit-505/home/23423958,San Francisco MLS,471705,N,Y,37.7616166,-122.4196351
PAST SALE,July-6-2018,Multi-Family (2-4 Unit),1163 South Van Ness Ave,San Francisco,CA,94110,1550000,7,3.0,Inner Mission,3208,,1876,9,483,,Sold,,,http://www.redfin.com/CA/San-Francisco/1163-S-Van-Ness-Ave-94110/home/1272677,San Francisco MLS,470547,N,Y,37.7545992,-122.4162206
PAST SALE,July-13-2018,Single Family Residential,2583 47th Ave,San Francisco,CA,94116,1450000,3,2.0,Outer Parkside,1300,2809,1949,2,1115,,Sold,,,http://www.redfin.com/CA/San-Francisco/2583-47th-Ave-94116/home/663873,San Francisco MLS,470768,N,Y,37.7383463,-122.5056745
PAST SALE,June-22-2018,Single Family Residential,2734 42nd Ave,San Francisco,CA,94116,1500000,5,3.0,Outer Parkside,2690,3000,1948,23,558,,Sold,,,http://www.redfin.com/CA/San-Francisco/2734-42nd-Ave-94116/home/1386657,San Francisco MLS,470909,N,Y,37.7357063,-122.4996464
PAST SALE,June-25-2018,Single Family Residential,2023 42nd Ave,San Francisco,CA,94116,1376000,2,2.0,Outer Parkside,1214,3000,1948,20,1133,,Sold,,,http://www.redfin.com/CA/San-Francisco/2023-42nd-Ave-94116/home/652989,San Francisco MLS,470726,N,Y,37.7489306,-122.5010059
PAST SALE,June-18-2018,Single Family Residential,190 Country Club Dr,San Francisco,CA,94132,1839000,3,3.0,Lake Shore,2072,3136,1955,27,888,,Sold,,,http://www.redfin.com/CA/San-Francisco/190-Country-Club-Dr-94132/home/1364092,San Francisco MLS,471227,N,Y,37.7312963,-122.4972652
PAST SALE,June-21-2018,Single Family Residential,15 Clearfield Dr,San Francisco,CA,94132,1455000,3,2.0,Lake Shore,1390,3184,1951,24,1047,,Sold,,,http://www.redfin.com/CA/San-Francisco/15-Clearfield-Dr-94132/home/1608010,San Francisco MLS,470681,N,Y,37.7334607,-122.4917546
PAST SALE,,Multi-Family (5+ Unit),520 Natoma St Apt 2,San Francisco,CA,94103,425000,,13.0,,5715,2475,1911,,74,,,,,http://www.redfin.com/CA/San-Francisco/520-Natoma-St-94103/unit-2/home/1413407,,,N,Y,37.779856,-122.4083003
PAST SALE,,Single Family Residential,1061 Shotwell St,San Francisco,CA,94110,1746000,,1.0,,2200,3062,1930,,794,,,,,http://www.redfin.com/CA/San-Francisco/1061-Shotwell-St-94110/home/1647339,,,N,Y,37.7514943,-122.4149043
PAST SALE,June-26-2018,Multi-Family (2-4 Unit),466-468 35th Ave,San Francisco,CA,94121,2395000,6,3.5,Outer Richmond,3541,3000,1898,19,676,,Sold,,,http://www.redfin.com/CA/San-Francisco/468-35th-Ave-94121/home/145278615,San Francisco MLS,469152,N,Y,37.7802596,-122.4952427
PAST SALE,June-26-2018,Single Family Residential,466 32nd Ave,San Francisco,CA,94121,1300000,2,1.0,Central Richmond,1050,3000,1921,19,1238,,Sold,,,http://www.redfin.com/CA/San-Francisco/466-32nd-Ave-94121/home/1051345,San Francisco MLS,471383,N,Y,37.7804476,-122.4920751
PAST SALE,July-11-2018,Single Family Residential,182 32nd Ave,San Francisco,CA,94121,6750000,5,5.5,Sea Cliff,5780,3598,1916,4,1168,,Sold,,,http://www.redfin.com/CA/San-Francisco/182-32nd-Ave-94121/home/1341442,San Francisco MLS,469945,N,Y,37.7855393,-122.4926941
PAST SALE,June-25-2018,Single Family Residential,356 Prentiss St,San Francisco,CA,94110,2225000,3,2.0,Bernal Heights,1807,1750,1963,20,1231,,Sold,,,http://www.redfin.com/CA/San-Francisco/356-Prentiss-St-94110/home/1414435,San Francisco MLS,471064,N,Y,37.7387917,-122.4122494
PAST SALE,June-21-2018,Multi-Family (2-4 Unit),76 Seal Rock Dr,San Francisco,CA,94121,1100000,4,2.0,Outer Richmond,2450,2495,1947,24,449,,Sold,,,http://www.redfin.com/CA/San-Francisco/76-Seal-Rock-Dr-94121/home/1765134,San Francisco MLS,471274,N,Y,37.780954,-122.507641
PAST SALE,June-25-2018,Condo/Co-op,79 Chattanooga St,San Francisco,CA,94114,2800000,3,3.5,Eureka Valley/Dolore,2016,,1887,20,1389,,Sold,,,http://www.redfin.com/CA/San-Francisco/79-Chattanooga-St-94114/home/1791432,San Francisco MLS,470314,N,Y,37.7553796,-122.4265766
PAST SALE,,Single Family Residential,214 Phelan Ave,San Francisco,CA,94112,850000,2,1.0,,840,2662,1922,,1012,,,,,http://www.redfin.com/CA/San-Francisco/214-Phelan-Ave-94112/home/1212256,,,N,Y,37.7286517,-122.4522749
PAST SALE,June-28-2018,Condo/Co-op,259 Sanchez St,San Francisco,CA,94114,1565000,3,2.0,Eureka Valley/Dolore,,,1900,17,,164,Sold,,,http://www.redfin.com/CA/San-Francisco/259-Sanchez-St-94114/home/54832417,San Francisco MLS,470191,N,Y,37.764934,-122.4308313
PAST SALE,June-22-2018,Condo/Co-op,71 Sanchez St Unit A,San Francisco,CA,94114,901000,1,1.0,Duboce Triangle,768,,1939,23,1173,361,Sold,,,http://www.redfin.com/CA/San-Francisco/71-Sanchez-St-94114/unit-A/home/144064101,San Francisco MLS,470228,N,Y,37.7681489,-122.4309977
PAST SALE,,Single Family Residential,131 Gaven St,San Francisco,CA,94134,980000,4,2.0,,1687,1873,1969,,581,,,,,http://www.redfin.com/CA/San-Francisco/131-Gaven-St-94134/home/975178,,,N,Y,37.7333551,-122.408245
PAST SALE,June-15-2018,Multi-Family (2-4 Unit),2901 Taraval St,San Francisco,CA,94116,1521000,3,4.0,Outer Parkside,3372,2296,,30,451,,Sold,,,http://www.redfin.com/CA/San-Francisco/2901-Taraval-St-94116/unit-057/home/145801167,San Francisco MLS,471373,N,Y,37.741897,-122.49728
PAST SALE,July-3-2018,Single Family Residential,2227 34th Ave,San Francisco,CA,94116,1320000,2,1.0,Parkside,1625,2996,1938,12,812,,Sold,,,http://www.redfin.com/CA/San-Francisco/2227-34th-Ave-94116/home/655427,San Francisco MLS,471489,N,Y,37.7455083,-122.4922188
PAST SALE,July-9-2018,Single Family Residential,1974 34th Ave,San Francisco,CA,94116,1075000,2,1.0,Parkside,800,2996,1942,6,1344,,Sold,,,http://www.redfin.com/CA/San-Francisco/1974-34th-Ave-94116/home/953669,San Francisco MLS,471825,N,Y,37.7503015,-122.4921228
PAST SALE,July-11-2018,Single Family Residential,2422 Pacheco St,San Francisco,CA,94116,1759500,4,3.0,Parkside,1725,2495,1949,4,1020,,Sold,,,http://www.redfin.com/CA/San-Francisco/2422-Pacheco-St-94116/home/647614,San Francisco MLS,470174,N,Y,37.750313,-122.486318
PAST SALE,,Multi-Family (5+ Unit),7301 Geary Blvd Apt 2,San Francisco,CA,94121,2100000,,6.0,,4748,2073,1956,,442,,,,,http://www.redfin.com/CA/San-Francisco/7301-Geary-Blvd-94121/unit-2/home/1974994,,,N,Y,37.7792231,-122.4977343
PAST SALE,June-15-2018,Condo/Co-op,420 Mission Bay Blvd #1103,San Francisco,CA,94158,2060000,2,2.0,Mission Bay,1562,,2012,30,1319,850,Sold,,,http://www.redfin.com/CA/San-Francisco/420-Mission-Bay-Blvd-N-94158/unit-1103/home/40513202,San Francisco MLS,472166,N,Y,37.7715936,-122.3885893
PAST SALE,June-18-2018,Townhouse,325 China Basin St #111,San Francisco,CA,94158,1925000,2,2.5,Mission Bay,1948,,2008,27,988,957,Sold,,,http://www.redfin.com/CA/San-Francisco/325-China-Basin-St-94158/unit-111/home/22898764,San Francisco MLS,468743,N,Y,37.7719487,-122.3875674
PAST SALE,,Condo/Co-op,420 Mission Bay Blvd N Unit 1103,San Francisco,CA,94158,2060000,2,2.0,,1562,,2012,,1319,,,,,http://www.redfin.com/CA/San-Francisco/420-Mission-Bay-Blvd-N-94158/unit-1103/home/40626108,,,N,Y,37.7715936,-122.3885893
PAST SALE,July-3-2018,Condo/Co-op,235 Berry St #707,San Francisco,CA,94158,1420000,2,2.0,Mission Bay,1190,,,12,1193,650,Sold,,,http://www.redfin.com/CA/San-Francisco/235-Berry-St-94158/unit-707/home/22890569,San Francisco MLS,467647,N,Y,37.7748669,-122.3941757
PAST SALE,July-10-2018,Condo/Co-op,1000 3rd St #412,San Francisco,CA,94158,899000,1,1.0,Mission Bay,767,,,5,1172,693,Sold,,,http://www.redfin.com/CA/San-Francisco/1000-3rd-St-94158/unit-412/home/112856095,San Francisco MLS,446714,N,Y,37.7752125,-122.3902276
PAST SALE,June-29-2018,Condo/Co-op,1277 Howard St #5,San Francisco,CA,94103,1230000,2,2.0,South of Market,1158,,2006,16,1062,589,Sold,,,http://www.redfin.com/CA/San-Francisco/1277-Howard-St-94103/unit-5/home/12402447,San Francisco MLS,469937,N,Y,37.775041,-122.4124596
PAST SALE,July-13-2018,Condo/Co-op,60 Rausch St #312,San Francisco,CA,94103,1303000,2,2.0,South of Market,1133,,2002,2,1150,455,Sold,,,http://www.redfin.com/CA/San-Francisco/60-Rausch-St-94103/unit-312/home/12399028,San Francisco MLS,471939,N,Y,37.7760722,-122.4096499
PAST SALE,June-28-2018,Townhouse,602 Capp St,San Francisco,CA,94110,1550000,3,1.5,Inner Mission,1532,,1900,17,1012,,Sold,,,http://www.redfin.com/CA/San-Francisco/602-Capp-St-94110/home/1569471,San Francisco MLS,471437,N,Y,37.7569533,-122.418012
PAST SALE,June-22-2018,Condo/Co-op,2806 21st St,San Francisco,CA,94110,1130000,2,1.0,Inner Mission,935,,1900,23,1209,300,Sold,,,http://www.redfin.com/CA/San-Francisco/2806-21st-St-94110/home/40142820,San Francisco MLS,471698,N,Y,37.757712,-122.410778
PAST SALE,July-12-2018,Condo/Co-op,1515 15th St #205,San Francisco,CA,94103,1350000,2,2.0,Inner Mission,1113,,2014,3,1213,550,Sold,,,http://www.redfin.com/CA/San-Francisco/1515-15th-St-94103/unit-205/home/56848165,San Francisco MLS,470465,N,Y,37.7665977,-122.4181501
PAST SALE,,Single Family Residential,27 Putnam St,San Francisco,CA,94110,1209000,,1.0,,800,1751,1927,,1511,,,,,http://www.redfin.com/CA/San-Francisco/27-Putnam-St-94110/home/1727401,,,N,Y,37.7393812,-122.4106344
PAST SALE,June-15-2018,Single Family Residential,1386 Thomas Ave,San Francisco,CA,94124,1125000,3,2.0,Bayview,1657,4000,1915,30,679,,Sold,,,http://www.redfin.com/CA/San-Francisco/1386-Thomas-Ave-94124/home/1344835,San Francisco MLS,469232,N,Y,37.728333,-122.3871469
PAST SALE,June-22-2018,Single Family Residential,790 Teresita Blvd,San Francisco,CA,94127,1510500,2,1.0,Miraloma Park,,2548,,23,,,Sold,,,http://www.redfin.com/CA/San-Francisco/790-Teresita-Blvd-94127/home/1395588,San Francisco MLS,470748,N,Y,37.7344995,-122.4455848
PAST SALE,June-15-2018,Single Family Residential,130 Swiss Ave,San Francisco,CA,94131,1660000,2,2.0,Glen Park,1334,3410,1941,30,1244,,Sold,,,http://www.redfin.com/CA/San-Francisco/130-Swiss-Ave-94131/home/1785404,San Francisco MLS,470809,N,Y,37.7363085,-122.4381312
PAST SALE,June-22-2018,Single Family Residential,570 Bright St,San Francisco,CA,94132,1200000,2,1.0,Merced Heights,1230,2495,1925,23,976,,Sold,,,http://www.redfin.com/CA/San-Francisco/570-Bright-St-94132/home/1793505,EBRD/CCAR/Bay East,40823511,N,Y,37.7209891,-122.4633763
PAST SALE,June-25-2018,Single Family Residential,350 Head St,San Francisco,CA,94132,1000000,3,1.0,Ingleside Heights,1100,5000,1909,20,909,,Sold,,,http://www.redfin.com/CA/San-Francisco/350-Head-St-94132/home/1266159,San Francisco MLS,471621,N,Y,37.7134073,-122.4641724
PAST SALE,June-29-2018,Single Family Residential,180 St Elmo Way,San Francisco,CA,94127,2750000,4,2.5,Monterey Heights,2824,4795,1929,16,974,2,Sold,,,http://www.redfin.com/CA/San-Francisco/180-St-Elmo-Way-94127/home/695753,San Francisco MLS,470622,N,Y,37.7309158,-122.4607669
PAST SALE,June-29-2018,Single Family Residential,318 Ridgewood Ave,San Francisco,CA,94127,2400000,4,3.0,Westwood Highlands,1920,2495,1926,16,1250,,Sold,,,http://www.redfin.com/CA/San-Francisco/318-Ridgewood-Ave-94127/home/691007,San Francisco MLS,472030,N,Y,37.732643,-122.453161
